id,img,lat,lon,ciudad,Nombre,tema,personaje_destacado,Descripcion,url,genero,Selecciona el estado de conservación de la estatua,year,organizacion
1,1.png,-17.374921,-66.144089,Cochabamba,Busto del General José Rivera Luna,Política y militar,José Rivera Luna,Héroe de la guerra del Chaco,https://www.facebook.com/photo?fbid=1956617554559354&set=a.1757437857810659,Masculino,Conservada,2023,Gobierno Autónomo Municipal de Cochabamba
2,2.png,-17.377462,-66.145629,Cochabamba,Cristo de la Concordia,"Religión (santos, ángeles, monjas o padres de la iglesia)",Jesús de Nazaret,Estatua representando a cristo resucitado,https://www.tiktok.com/@fabianagonzalescastillo/video/7190915866437897478,Masculino,Conservada,Sin información,Gobierno Autónomo Municipal de Cochabamba
3,3.png,-17.37884,-66.142253,Cochabamba,Monumento al Héroe Sargento Maximiliano Paredes Tejerina,Política y militar,Maximilliano Paredes,Héroe de la guerra del Acre,https://banderaenalto.blogspot.com/2011/05/el-centinela-maximiliano-paredes.html,Masculino,Conservada,2022,"ESCUELA DE APLICACIÓN DE ARMAS Y TECNOLOGICA DEL EJÉRCITO ""MARISCAL JOSE BALLIVIAN"""
4,4.png,-17.389462,-66.150376,Cochabamba,Estatua homenaje a Manuel Ascencio Villarroel Mercado,Ciencia e investigadores,Manuel Ascencio Villarroel Mercado,Pediatra cochabambino y filántropo en el área de salud,https://www.opinion.com.bo/articulo/opini-oacute-n/manuel-ascencio-villarroel/20120812211900428079.html,Masculino,Levemente a severamente deteriorada,Sin información,Fila. Sobrinos y nietos Cuadros-Anayq
6,6.png,-17.387984,-66.147005,Cochabamba,Busto representativo a Carlos de la Torre (Ex Alcalde),Política y militar,Carlos de la Torre,"Ex Alcalde de la ciudad de Cochabamba, fundador de la Facultad de Agronomía de la Universidad Mayor de San Simón y de la FEDJUVE",https://www.facebook.com/groups/372922458118633/posts/751576696919872/,Masculino,Levemente a severamente deteriorada,2004,Gobierno Municipal de Cochabamba
7,7.png,-17.387349,-66.148049,Cochabamba,Monumento homenajeando a la maternidad,Maternidad,Ninguno,Sin información,,Femenino,Conservada,Sin información,"La organización es en conjunto de varias instituciones, de la alcaldía con la Facultad de Medicina UMSS y Colegio de Médicos, la información fue Recolectada de una ciudadana que vive por el sector, aunque aún es incierto ya que no cuenta con una placa para mayor información"
8,8.png,-17.38762,-66.148318,Cochabamba,Busto de Hipócrates y homenaje a doctores,Ciencia e investigadores,Hipócrates,"Estatua de Hipócrates, personaje representativo de los médicos. Emplazada en un pequeño espacio con placas conmemorativas a Doctores(as) que dieron su vida trabajando en pandemia por el virus del COVID",https://www.lostiempos.com/actualidad/cochabamba/20240207/reconocen-86-medicos-que-lucharon-contra-covid-19-memorial-parque             https://www.tiktok.com/@r0c0c0o/video/7421662419681840389,Masculino,Conservada,2023,"Colegio de Médicos Departamental Cochabamba,  Gobierno de la Ciudad de Cochabamba, Fábrica de Cerámica Coboce y Farmacia San Elias"
9,9.png,-17.383415,-66.149406,Cochabamba,Estatua de Don Bosco y Domingo Savio,"Religión (santos, ángeles, monjas o padres de la iglesia)",Don Bosco y Domingo Savio,Estatua conmemorativa por los 100 años de la llegada de los salesianos a Bolivia,,Masculino,Conservada,1996,Sin información
10,10.png,-17.380788,-66.148141,Cochabamba,"Escultura de una medalla, otorgada por el CDAEN - Centro de Diplomado en Altos Estudios Nacionales",Política y militar,Ninguno,Sin información,,Sin género identificable,Levemente a severamente deteriorada,Sin información,Sin información
11,11.png,-17.39227,-66.148037,Cochabamba,Estatua del torso de Antonio José de Sucre,Política y militar,Antonio José de Sucre,"Político, diplomático, libertador, y militar venezolano, prócer de la independencia de América del Sur. Segundo presidente de Bolivia.",https://es.wikipedia.org/wiki/Antonio_Jos%C3%A9_de_Sucre,Masculino,Levemente a severamente deteriorada,Sin información,desconocido
12,12.png,-17.39318,-66.145482,Cochabamba,Estatua de Alfredo Cladera Quintanilla,Ciencia e investigadores,Alfredo Cladera Quintanilla,Fundador de la carrera Ingeniería Industrial de la UMSS,"http://www.fcyt.umss.edu.bo/pregrado/industrial/#:~:text=La%20Carrera%20de%20Ing.,una%20perspectiva%20racional%20y%20cient%C3%ADfica.",Masculino,Levemente a severamente deteriorada,2021,Facultad de Ciencias y tecnologia umss
13,13.png,-17.393337,-66.14535,Cochabamba,Estatua de Dalibor Slobodan,Ciencia e investigadores,Dalibor Slobodan,Docente de la carrera de Ingeniería Industrial de la UMSS,https://de-de.facebook.com/UmssBolOficial/videos/48%C2%BA-aniversario-de-la-carrera-de-ing-industrial-reapertura-de-la-planta-piloto-u/3983737745019093/,Masculino,Levemente a severamente deteriorada,2021,Facultad de CIencias y Tecnologia
14,14.png,-16.526946,-68.151219,La Paz y El Alto,Hormiga trabajadora,"Naturaleza (animales, plantas)",Ninguno,Sin información,,Sin género identificable,Conservada,2023,GAMLP
15,15.png,-16.526159,-68.152385,La Paz y El Alto,Monumento Enlosetado Avenida del Policía,Política y militar,Ninguno,Sin información,https://www.youtube.com/watch?v=60VUp8wX7_8,Sin género identificable,Levemente a severamente deteriorada,1995,Alcaldía municipal del Alto
16,16.png,-16.524159,-68.153618,La Paz y El Alto,Plaza Chacarilla del periodista,Ciencia e investigadores,Ninguno,"Monumento de las manos de un periodista con su cuaderno de notas y un micrófono, en honor a la libertad de prensa.",https://www.redpat.tv/detalle/alcaldesa-de-el-alto-celebra-el-dia-del-periodista-y-reivindica-la-libertad-de-prensa,Sin género identificable,Conservada,2024,Junta de vecinos 405 ciudad satélite
17,17.png,-17.397358,-66.162755,Cochabamba,Estatua de Gerónimo de Osorio,Política y militar,Gerónimo de Osorio,"Monumento en honor a la fundación de Villa de Oropesa y al fundador, Gerónimo de Osorio",https://www.lostiempos.com/actualidad/cochabamba/20230815/cochabamba-celebra-sus-452-anos-fundacion-como-villa-oropesa,Masculino,Levemente a severamente deteriorada,1971,Honorable Alcaldía municipal de Cochabamba
18,18.png,-17.375009,-66.156912,Cochabamba,Busto de Don Ñuflo de Chávez,Política y militar,Ñuflo de Chávez,En homenaje al fundador de Santa Cruz Don Ñuflo de Chávez,https://eldeber.com.bo/gente/nuflo-de-chaves-el-gran-protagonista-de-la-historia-crucena_266105/,Masculino,Levemente a severamente deteriorada,1981,Centro de damas cruceñas
19,19.png,-17.396377,-66.185348,Cochabamba,Estatua en homenaje a Victor Ustariz,Política y militar,Victor Ustariz,"Víctor Ustariz, apodado ""el Charata"", fue un militar boliviano que se destacó en la Guerra del Chaco.",https://banderaenalto.blogspot.com/2014/05/cap-victor-ustariz.html,Masculino,Levemente a severamente deteriorada,Sin información,"Comité Pro monumento "" Capitán Victor Ustariz"""
20,20.png,-16.500041,-68.145213,La Paz y El Alto,Estatua de Eduardo Abaroa Hidalgo,Política y militar,Eduardo Abaroa,Monumento en conmemoración a Eduardo Abaroa y a la guerra del Pacífico,https://www.historia.com.bo/biografia/eduardo-abaroa,Masculino,Conservada,2014,"Junta Vecinal ""Eduardo Avaroa"""
22,22.png,-16.513651,-68.127544,La Paz y El Alto,Fuente de Neptuno,Mitos y leyendas,Neptuno,"Conjunto escultórico conformado por tres figuras. La principal, la cual corresponde a la efigie de Neptuno, se clasifica como escultura estatuaria de bulto redondo, de tipo cuerpo entero, en posición erguida. Obra del escultor J. Magnani o Giuseppe Magnani (lleva inscrito el nombre del autor dentro de la fuente), realizada en mármol blanco en 1928. Este conjunto escultórico está ubicado en el parque del Montículo de la zona de Sopocachi.",https://lapazdelbicentenario.blogspot.com/2020/08/fuente-de-neptuno.html,Masculino,Conservada,1928,Junta de pavimentación en el año 1928 a iniciativa del presidente Hernando Siles
23,23.png,-16.510796,-68.12676,La Paz y El Alto,Monumento de Eduardo Abaroa,Política y militar,Eduardo Abaroa,"Obra del escultor Emiliano Luján, realizada a base de bronce fundido en 1951. Está ubicado en la plaza homónima, entre las calles Belisario Salinas, Sánchez Lima, 20 de Octubre y Pedro Salazar de la zona de Sopocachi.
",https://lapazdelbicentenario.blogspot.com/2018/07/monumernto-eduardo-avaroa-abaroa-hidalgo.html,Masculino,Conservada,1998,Fuerza Naval boliviana
24,24.png,-16.506872,-68.12652,La Paz y El Alto,Estatua de Mario Mercado,Política y militar,Mario Mercado,"Mario Mercado fue un dirigente deportivo, exsenador, exalcalde y empresario boliviano, conocido principalmente por su larga y exitosa gestión como presidente del Club Bolívar. La estatua es obra del escultor Gustavo Lara, realizada a base de bronce fundido en 1995. Está ubicada en la plaza homónima de la zona de San Jorge.",https://www.historia.com.bo/biografia/mario-mercado-vaca-guzman,Masculino,Conservada,1996,Gobierno Municipal de La Paz
26,26.png,-17.375274,-66.144265,Cochabamba,Torso de José Rivera Luna,Política y militar,José Rivera Luna,Sin información,https://www.lostiempos.com/actualidad/cochabamba/20230313/remodelan-parque-jose-rivero-zona-aranjuez,Masculino,Levemente a severamente deteriorada,2023,OTB Bajo Aranjuez
27,27.png,-17.373379,-66.149622,Cochabamba,Sombrero de mujer cochabambina en la ciclovía,"Representación del cuerpo o la ""belleza"" femenina",Ninguno,Monumento de un sombrero clásico de chola cochabambina.,https://www.opinion.com.bo/articulo/cochabamba/sombrero-chola-vuelve-lugar-cochabamba/20170814040400586870.html,Sin género identificable,Conservada,2017,Sin información
28,28.png,-17.374921,-66.153588,Cochabamba,Estatua de un perro aullando,"Naturaleza (animales, plantas)",Ninguno,Sin información,https://www.opinion.com.bo/articulo/tendencias/palacio-rey-estano-construyo-gaulle-estreno/20120922223500662858.html,Sin género identificable,Conservada,Sin información,simon y patiño
29,29.png,-17.380248,-66.151619,Cochabamba,Estatua de Eduardo Avaroa,Política y militar,Eduardo Abaroa,Monumento en conmemoración a Eduardo Abaroa y a la guerra del Pacífico,https://www.historia.com.bo/biografia/eduardo-abaroa,Masculino,Conservada,1975,Comité Cívico Pro mar boliviano
30,30.png,-17.37464,-66.15329,Cochabamba,La bañista,"Representación del cuerpo o la ""belleza"" femenina",Ninguno,Sin información,https://www.opinion.com.bo/articulo/tendencias/palacio-rey-estano-construyo-gaulle-estreno/20120922223500662858.html,Femenino,Conservada,Sin información,simon y patiño
31,31.png,-17.37486,-66.153134,Cochabamba,Las tres gracias,Mitos y leyendas,"Aglae, Talia y Eufrosinia","Aglae, diosa de la belleza y el esplendor; Talia, diosa del teatro y de las celebraciones festivas; Eufrosinia, diosa del júbilo, la alegría y el hechizo.",https://www.facebook.com/photo.php?fbid=2260746110888456&id=1439691069660635&set=a.1439755436320865,Femenino,Conservada,Sin información,simon y patiño
32,32.png,-17.374448,-66.153155,Cochabamba,Hombre en toga,Otro,Ninguno,Sin información,https://www.opinion.com.bo/articulo/tendencias/palacio-rey-estano-construyo-gaulle-estreno/20120922223500662858.html,Masculino,Conservada,Sin información,simon y patiño
33,33.png,-17.373549,-66.142897,Cochabamba,Mujer tarijeña,"Representación del cuerpo o la ""belleza"" femenina",Ninguno,Sin información,,Femenino,Conservada,Sin información,Sin información
34,34.png,-16.498306,-68.132528,La Paz y El Alto,Conjunto escultórico a Bartolina Sisa y Túpac Katari,Pueblos indígenas,Bartolina Sisa y Túpac Katari,Estatua de Túpac Katari y Bartolina Sisa.,https://es.wikipedia.org/wiki/T%C3%BApac_Katari,Masculino,Levemente a severamente deteriorada,Sin información,Sin información
35,35.png,-17.419751,-66.139779,Cochabamba,Estatua en honor al Padre Valerio Modena,"Religión (santos, ángeles, monjas o padres de la iglesia)",Valerio Modena,"Sacerdote italiano que residió muchos años en Cochabamba, trabajó en obras de caridad, fundando varios comedores populares para familias de escasos recursos.",https://infodecom.net/fallecio-p-valerio-modena-parroco-de-san-juan-bautista-alalay/,Masculino,Conservada,2014,Sin información
36,36.png,-17.41627672463117,-66.14071300000236,Cochabamba,Homenaje al Minero,"Organizaciones sociales (mineros, campesinos, dirigentes sociales)",Ninguno,"Monumento al Minero, monumento que acompaña al letrero de bienvenida del ""Barrio Minero Alalay"", levemente deteriorada por el tiempo, sin embargo es bastante frecuentada como punto de reunión para las prácticas de las bandas musicales, incluso es tomado en cuenta en el festejo de carnaval ya que se ve que fue decorado con serpentinas (que siempre son retiradas al pasar las fechas festivas)",https://www.facebook.com/mariochaconfotografia/posts/justo-en-la-esquina-sudoeste-de-la-lagunaalalay-en-la-entrada-al-barrrio-minero-/1242718579548226/,Masculino,Levemente a severamente deteriorada,2004,Sin información
37,37.png,-17.373931,-66.143,Cochabamba,Octavio Campero Echazu,"Arte, música, literatura y comunicación",Octavio Campero Echazu,cabeza de un hombre con traje,https://elpais.bo/tarija/20180524_octavio-campero-echazu-el-gran-poeta-de-tarija.html,Masculino,Conservada,2010,alcaldia municipal de tarija
39,39.png,-17.379441,-66.180941,Cochabamba,Fuente de agua con caballos,"Naturaleza (animales, plantas)",Ninguno,Sin información,,Sin género identificable,Conservada,Sin información,Sin información
40,40.png,-17.386684,-66.182382,Cochabamba,Fuente de agua con un dragón chino,"Naturaleza (animales, plantas)",Ninguno,Sin información,,Sin género identificable,Levemente a severamente deteriorada,Sin información,Sin información
41,41.png,-19.040624,-65.265774,Sucre,Estatua de Aniceto Arce (Ex - presidente de la Republica y Fundador de la Ciudad de Uyuni),Política y militar,Aniceto Arce,"En la plazuela de la ex estación Aniceto Arce se encuentra otro monumento que corresponde al ex presidente de Bolivia don Aniceto Arce Ruiz. Fue puesto por la empresa nacional de ferrocarriles del estado en 1946 reconociéndolo como el presidente impulsor de las líneas férreas en Bolivia.
",https://www.facebook.com/radioglobalbolivia/posts/tesoros-chuquisaque%C3%B1os-la-historia-de-sucre-a-trav%C3%A9s-de-sus-monumentoslos-monume/4215513148534775/,Masculino,Conservada,2005,CENTRO DE RESIDENTES UYUNENSES
42,42.png,-19.040685,-65.265157,Sucre,Estatua de mujer originaria,"Religión (santos, ángeles, monjas o padres de la iglesia)",Ninguno,Sin información,,Femenino,Levemente a severamente deteriorada,Sin información,Sin información
43,43.png,-19.048666,-65.261632,Sucre,Estatua del Dr. Jaime Zudañez,Política y militar,Jaime Zudañez,"Fue un abogado y político charquino que se destacó como uno de los participantes de la Revolución de Chuquisaca, la cual dio inicio a los “levantamientos revolucionarios autonomistas”.",https://es.wikipedia.org/wiki/Jaime_de_Zud%C3%A1%C3%B1ez,Masculino,Conservada,2018,Universidad Mayor Real y Pontificia San Francisco Xavier de Chuquisaca
44,44.png,-19.034209,-65.261761,Sucre,Estatua de Juana Azurduy de Padilla,Política y militar,Juana Azurduy,"Juana luchó en las guerras de independencia hispanoamericanas por la emancipación del Virreinato del Río de la Plata contra la Monarquía española y asumió la comandancia de las guerras que conformaron la denominada Republiqueta de La Laguna, por lo que su memoria es honrada en Argentina y en Bolivia.",https://es.wikipedia.org/wiki/Juana_Azurduy,Femenino,Conservada,2023,Gobierno Autónomo Municipal de Sucre
45,45.png,-19.053549,-65.267029,Sucre,"Busto de Maria Josefa Mujia, poetisa","Arte, música, literatura y comunicación",Maria Josefa Mujica,"Es considerada una de las primeras poetisas del romanticismo en Bolivia. Perteneció a la época denominada romanticismo en el siglo XIX y destacó a lado figuras como Manuel José Cortés, Néstor Galindo, Adela Zamudio, Ricardo Mujía y Nataniel Aguirre.",https://es.wikipedia.org/wiki/Mar%C3%ADa_Josefa_Mujia,Femenino,Conservada,2019,Gobierno Autónomo Municipal de Sucre
46,46.png,-19.041187,-65.263091,Sucre,Estatua del Libertador Simon Boliviar,Política y militar,Simón Bolívar,"Fue un militar y político venezolano que luchó por la independencia de varios países de Sudamérica, entre ellos Bolivia.",http://revistamedica.8m.net/MonumentosSucre.htm,Masculino,Conservada,1995,U.E. SIMON BOLIVAR
47,47.png,-19.038377,-65.26072,Sucre,Monumento al maestro,Maestros,Ninguno,Sin información,http://revistamedica.8m.net/MonumentosSucre.htm,Masculino,Conservada,1987,Gobierno Autónomo Municipal de Sucre
48,48.png,-19.036095,-65.255834,Sucre,Monumento en virtud a la Plaza Cooperativista,"Organizaciones sociales (mineros, campesinos, dirigentes sociales)",Ninguno,Sin información,,Sin género identificable,Levemente a severamente deteriorada,1991,FENACRE - ALCALDIA MUNICIPAL
49,49.png,-19.04786,-65.259653,Sucre,Estatua del Libertador Simon Boliviar,Política y militar,Simón Bolívar,"Fue un militar y político venezolano que luchó por la independencia de varios países de Sudamérica, entre ellos Bolivia.",http://revistamedica.8m.net/MonumentosSucre.htm,Masculino,Conservada,Sin información,Sin información
50,50.png,-19.044351,-65.262324,Sucre,Monumento a Don Joaquin Gantier Valda,"Organizaciones sociales (mineros, campesinos, dirigentes sociales)",Joaquin Gantier Valda,"Dramaturgo, biógrafo y poeta chuquisaqueño.",https://elias-blanco.blogspot.com/2012/01/joaquin-gantier-valda.html,Masculino,Conservada,1999,Fondo Financiero para el Desarrollo la Cuenca del Plata - FONPLATA
51,51.png,-19.036501,-65.266149,Sucre,"Monumento en virtud a ""Compañeros que ofrendaron sus vidas en aras de la Democracia""""",Política y militar,Ninguno,Sin información,,Masculino,Levemente a severamente deteriorada,1987,Alcaldia de Sucre
52,52.png,-19.046125,-65.265868,Sucre,Estatua en Homenaje al Dr. Aniceto Solares Llano,Ciencia e investigadores,Aniceto Solares Llano,Destacado médico del siglo XX en Bolivia.,http://www.revistamedica.8m.net/ListaMedicos/biografia30.htm,Masculino,Levemente a severamente deteriorada,2008,universidad mayor real y pontificia de san francisco xavier de chuquisaca
53,53.png,-17.388695,-66.155886,Cochabamba,Estatua de Nataniel Aguirre,Política y militar,Nataniel Aguirre,"Escritor, político, diplomático e historiador boliviano. Es considerado un pionero de la literatura histórica boliviana. ",https://www.biografiasyvidas.com/biografia/a/aguirre_nataniel.htm,Masculino,Levemente a severamente deteriorada,Sin información,Sin información
54,54.png,-17.387356,-66.155791,Cochabamba,Estatua del Cnl. Fransisco del Rivero,Política y militar,Francisco del Rivero,Fue un militar y político cochabambino que protagonizó la primera revolución de Cochabamba en septiembre de 1810 y en las primeras luchas del territorio a órdenes de la Junta de Gobierno del Río de la Plata,https://www.opinion.com.bo/articulo/tendencias/francisco-rivero-h-eacute-roe-olvidado/20170910193300675799.html,Masculino,Conservada,2010,Club Social Cochabamba
55,55.png,-17.386816,-66.156744,Cochabamba,Estatua del Mariscal José Ballivián,Política y militar,José Ballivián,Fue un militar y político boliviano. Fungió como presidente de Bolivia desde el 27 de septiembre de 1841 hasta su caída del 23 de diciembre de 1847,https://www.biografiasyvidas.com/biografia/b/ballivian_jose.htm,Masculino,Levemente a severamente deteriorada,1997,Circulo de oficiales de caballeria La paz
56,56.png,-17.384791,-66.157843,Cochabamba,Estatua de Simón Bolivar,Política y militar,Simón Bolívar,"Fue un militar y político venezolano que luchó por la independencia de varios países de Sudamérica, entre ellos Bolivia.",https://www.biografiasyvidas.com/biografia/b/bolivar.htm,Masculino,Conservada,1925,Club Social Cochabamba
57,57.png,-17.38382,-66.15828,Cochabamba,Estatua en conmemoración a la labor de los maestros,Ciencia e investigadores,Ninguno,Sin información,,Masculino,Levemente a severamente deteriorada,1930,Sin información
58,58.png,-17.382623,-66.159375,Cochabamba,Estatua de Adela Zamudio,Ciencia e investigadores,Adela Zamudio,En homenaje a Adela Zamudio en sus bodas de plata,https://www.opinion.com.bo/articulo/cobocitos/quien-era-adela-zamudio/20141012202800667996.html,Femenino,Levemente a severamente deteriorada,1989,Confederación nacional de instituciones femeninas
59,59.png,-17.382435,-66.159373,Cochabamba,Busto de Manuel Frontaura Argandoña,Ciencia e investigadores,Manuel Frontaura Argandoña,"Novelista, dramaturgo, poeta e historiador. Abogado. Se desempeñó como profesor en colegios de Tarija y Oruro.",https://elias-blanco.blogspot.com/2012/01/manuel-frontaura-argandona.html,Masculino,Levemente a severamente deteriorada,Sin información,Sin información
60,60.png,-17.395504,-66.165933,Cochabamba,Fuente con mujer sosteniendo un cántaro,"Representación del cuerpo o la ""belleza"" femenina",Ninguno,Sin información,,Femenino,Conservada,Sin información,Sin información
61,61.png,-16.504002,-68.131522,La Paz y El Alto,Monumento del Mcal. Andrés de Santa Cruz,Política y militar,Andrés de Santa Cruz,"Militar y político boliviano-peruano, fundador de la Confederación Perú-Boliviana",https://es.wikipedia.org/wiki/Andr%C3%A9s_de_Santa_Cruz,Masculino,Conservada,Sin información,Sin información
62,62.png,-16.502473,-68.135237,La Paz y El Alto,Busto del Mcal. Antonio José de Sucre,Política y militar,Antonio José de Sucre,"Político, diplomático, libertador, y militar venezolano, prócer de la independencia de América del Sur. Segundo presidente de Bolivia.",https://es.wikipedia.org/wiki/Antonio_Jos%C3%A9_de_Sucre,Masculino,Conservada,1902,Sin información
63,63.png,-16.505257,-68.134945,La Paz y El Alto,"Busto de Gilberto Rojas, músico","Arte, música, literatura y comunicación",Gilberto Rojas,En esta plaza se encontraba el busto de bronce del compositor orureño pero ha sido robada.,https://es.wikipedia.org/wiki/Gilberto_Rojas_Enr%C3%ADquez,Masculino,Levemente a severamente deteriorada,Sin información,Sin información
64,64.png,-16.49391,-68.140779,La Paz y El Alto,Estatua de Vicenta Juariste Eguino,Política y militar,Vicenta Juaristi Eguino,Heroína de la independencia de Bolivia. Permanecen en el imaginario colectivo de La Paz como símbolo de la lucha contra la opresión colonial.,https://es.wikipedia.org/wiki/Vicenta_Juaristi_Eguino,Femenino,Conservada,1975,Agrupación femenina “Amigos de la ciudad”
65,65.png,-16.49333,-68.138395,La Paz y El Alto,Estatua de Alonso de Mendoza,Política y militar,Alonso de Mendoza,"Estatua de Alonso de Mendoza, capitán y conquistador español quien fundó la ciudad de La Paz. La estatua conmemora el lugar donde se fundó la ciudad de Nuestra Señora de La Paz.",https://es.wikipedia.org/wiki/Alonso_de_Mendoza,Masculino,Conservada,1948,Sin información
66,66.png,-17.395883,-66.145632,Cochabamba,Parque universitario José M. Urquidi - Homenaje del Gobierno Comunal,Política y militar,José Macedonio Urquidi,Destacado historiador y fundador del Archivo Histórico de Cochabamba.,https://www.opinion.com.bo/articulo/deportes/jose-macedonio-urquidi-fundador-archivo-historico-municipal/20071104120441274803.html,Sin género identificable,Levemente a severamente deteriorada,1986,Gobierno Comunal
68,68.png,-16.504207,-68.131166,La Paz y El Alto,Estatua Mcal. Antonio José de Sucre,Política y militar,Antonio José de Sucre,"Político, diplomático, libertador, y militar venezolano, prócer de la independencia de América del Sur. Segundo presidente de Bolivia.",https://es.wikipedia.org/wiki/Antonio_Jos%C3%A9_de_Sucre,Masculino,Conservada,1926,Sin información
69,69.png,-17.369272,-66.181313,Cochabamba,Monumento al artista y compositor nacional prof. Victor Jimenez G.,"Arte, música, literatura y comunicación",Victor Jimenez,"Víctor Jiménez García fue un reconocido músico y compositor boliviano, nacido el 28 de julio de 1910 en la provincia Jordán, Cliza.
",https://pentagramadelrecuerdo.com/2023/05/12/victor-jimenez-garcia/,Sin género identificable,Levemente a severamente deteriorada,1999,Sin información
70,70.png,-17.396217,-66.148051,Cochabamba,Al Procer General Gervasio Artigas,Política y militar,Gervasio Artigas,"José Gervasio Artigas fue un líder revolucionario, militar y político uruguayo considerado un héroe nacional. Fue un precursor del federalismo y luchó contra el gobierno español en la Revolución del Río de la Plata. Artigas es también conocido como el ""Padre de la Patria Uruguaya"". ",https://www.cultura.gob.ar/jose-gervasio-artigas-el-protector-de-los-pueblos-libres-9150/            ,Masculino,Levemente a severamente deteriorada,2009,Uruguayos Residentes en Cochabamba
71,71.png,-16.488425,-68.171532,La Paz y El Alto,Heroínas de octubre,Pueblos indígenas,Ninguno,El monumento a la mujer aymará por los “Caídos de la Guerra del Gas de 2003” en la Zona Ballivián de la ciudad de El Alto.,https://www.eabolivia.com/el-alto-noticias/2515-homenaje-en-el-alto-mujer-aymara-por-los-caidos-de-la-guerra-del-gas-de-2003.html,Femenino,Levemente a severamente deteriorada,Sin información,Sin información
72,72.png,-17.395354,-66.145809,Cochabamba,Plaza Dr Alfredo Medizabal,Ciencia e investigadores,Alfredo Mendizabal,Sin información,,Masculino,Conservada,1979,Honorable Municipalidad de Cochabamba
73,73.png,-16.494963,-68.173645,La Paz y El Alto,Túpac Amaru,Pueblos indígenas,Túpac Amaru,"Túpac Amaru II, cuyo nombre real era José Gabriel Condorcanqui Noguera, fue un líder indígena peruano que encabezó la mayor rebelión anticolonial en la América Española, durante el periodo colonial.",https://www.gob.pe/institucion/rree/noticias/8883-consulado-peruano-reinaugura-monumento-en-honor-a-tupac-amaru-en-el-alto-bolivia,Masculino,Conservada,Sin información,MUNICIPALIDAD PROVINCIAL DE LIMA Y LA ALCALDIA MUNICIPAL DE LA PAZ
74,74.png,-16.492396,-68.183248,La Paz y El Alto,Monumento de una Kantuta,"Naturaleza (animales, plantas)",Ninguno,"La flor de Kantuta fue reconocida en la Constitución de 2009 como símbolos del Estado Boliviano, debido a que sus colores son los mismos que tiene la bandera boliviana.",https://es.wikipedia.org/wiki/Flor_nacional_de_Bolivia,Sin género identificable,Levemente a severamente deteriorada,2019,GOBIERNO AUTONÓMO MUNICIPAL DE EL ALTO
75,75.png,-16.504113,-68.162348,La Paz y El Alto,Estatua del Che Guevara,Política y militar,Ernesto Che Guevara,El monumento al Che Guevara fue creado por Félix Durán en el 2008 como pieza conmemorativa a la primera década del siglo XXI con la guerra del Gas y la ascensión de Evo Morales al poder.,https://www.urgente.bo/noticia/el-monumento-al-che-una-obra-sin-sentido-est%C3%A9tico-y-carente-de-identidad-alte%C3%B1a,Masculino,Levemente a severamente deteriorada,2008,GOBIERNO AUTÓNOMO MUNICIPAL DE EL ALTO
76,76.png,-14.83525,-64.904065,Trinidad,Estatua de José Ballivián Segurola,Política y militar,José Ballivián,"Presidente de Bolivia José Ballivián Segurola (18 de noviembre de 1841) montado en su caballo. A sus pies, se encuentra un grupo de soldados. De manera frontal, se encuentran dos jinetes apuntando hacia adelante con sus espadas.",https://www.biografiasyvidas.com/biografia/b/ballivian_jose.htm,Masculino,Levemente a severamente deteriorada,Sin información,Sin información
77,77.png,-14.834919,-64.903849,Trinidad,Fuente con indígenas de tierras bajas,Pueblos indígenas,Ninguno,"En la base de puede ser tres indígenas con taparabos agarrando su arco y flecha. En sun segundos piso, se observa tres tipos de ave.  Como último y  tercer nivel, se observa niños. Dos de ellos alzan a un tercer niño.",,Masculino,Conservada,Sin información,No tiene nombre
78,78.png,-17.378875,-66.14203,Cochabamba,Busto homenaje al Dr. Martin Cárdenas,Ciencia e investigadores,Martín Cárdenas,"Naturalista, botánico y agrónomo boliviano. Realizó extensas expediciones botánicas por todo el territorio nacional recolectando especímenes de la flora local.",https://es.wikipedia.org/wiki/Mart%C3%ADn_C%C3%A1rdenas_Hermosa,Masculino,Conservada,Sin información,Gobierno municipal de Cochabamba
79,79.png,-17.378542,-66.141122,Cochabamba,Escultura metálica de herramienta de arado,Agricultura y ganadería,Ninguno,Sin información,,Sin género identificable,Conservada,Sin información,Gobierno municipal de Cochabamba - Jardín Botánico Martín Cardenas
80,80.png,-17.378485,-66.140898,Cochabamba,Escultura metálica de una rueda,Agricultura y ganadería,Ninguno,Sin información,,Sin género identificable,Conservada,Sin información,Sin información
81,81.png,-17.377058,-66.140463,Cochabamba,Escultura metálica de un cañon,Política y militar,Ninguno,Sin información,,Sin género identificable,Conservada,Sin información,Gobierno Autónomo Municipal de Cochabamba - Jardín Botánico Martín Cardenas
82,82.png,-17.378074,-66.140084,Cochabamba,Escultura de figura humana,Otro,Ninguno,Sin información,,Masculino,Conservada,Sin información,Gobierno Autónomo Municipal de Cochabamba - Jardín Botánico Martín Cardenas
83,83.png,-17.377624,-66.140535,Cochabamba,Escultura representación de una mujer,"Representación del cuerpo o la ""belleza"" femenina",Ninguno,Sin información,,Femenino,Conservada,Sin información,Gobierno Autónomo Municipal de Cochabamba - Jardín Botánico Martín Cardenas
84,84.png,-14.82446,-64.90276,Trinidad,Estatua de Cipriano Barace,"Religión (santos, ángeles, monjas o padres de la iglesia)",Cipriano Barace,"Fue un misionero jesuita y mártir español fundador de las ciudades de Trinidad, Loreto y Baures, entre otras poblaciones en el Departamento del Beni en Bolivia.",https://trinidadtevajaenamorar.com.bo/Lugar/21,Masculino,Conservada,1987,Gobierno municipal
85,85.png,-14.840456,-64.901306,Trinidad,Monumento a la VIII Marcha Indigenal,Pueblos indígenas,Ninguno,Monumento en memoria de la VII Marcha Indigenal y la represión en Chaparina por el TIPNIS,https://www.facebook.com/benihistoria/posts/el-25-de-septiembre-del-2011-el-gobierno-del-mas-reprimi%C3%B3-brutalmente-a-los-ind%C3%AD/1114826385582267/,Masculino,Conservada,2012,Gobierno Municipal de Trinidad
86,86.png,-14.836316,-64.89841,Trinidad,El carretón de la otra vida,Mitos y leyendas,Ninguno,"Se afirma que El Carretón siempre aparece en momentos de inexplicables y misteriosas coincidencias, cuando alguien está a punto de partir hacia dimensiones desconocidas. Hay quienes aseguran que sus chillidos cesan cerca de la casa del elegido por la muerte, como si estuviera esperando el alma de aquel que repasa su vida y sus pecados en sus últimos minutos de agonía.",https://trinidadtevajaenamorar.com.bo/CulturasMitos/1/detalles,Masculino,Conservada,Sin información,Gobierno Municipal
87,87.png,-14.836254,-64.899638,Trinidad,El Guajojo,"Naturaleza (animales, plantas)",Ninguno,"El ""Guajojó"" es un pájaro nocturno cuyo agudo y triste canto, como si estuviera saliendo de alguien que sufre una gran pena, llena de melancolía el silencio de la noche e impresiona y conmueve a quien lo escucha.",https://trinidadtevajaenamorar.com.bo/CulturasMitos/4/detalles,Masculino,Conservada,Sin información,Gobierno municipal
88,88.png,-14.836375,-64.898942,Trinidad,El duende,Mitos y leyendas,Ninguno,"En el Beni, este personaje es muy conocido gracias a las muchas historias que se cuentan de él que exaltan la imaginación popular. Casi todas las historias coinciden en que es un ente de sexo masculino, de baja estatura, casi enano, con piernas cortas. Cubre su cabeza con un sombrero de paja ancho que casi le tapa la cara y usa una larga bata blanca que deja al descubierto sus enormes pies, desproporcionados para su tamaño. De hecho, el personaje es estrafalario.",https://trinidadtevajaenamorar.com.bo/CulturasMitos/5/detalles,Masculino,Levemente a severamente deteriorada,Sin información,Gobierno Municipal
89,89.png,-14.836415,-64.899477,Trinidad,La viudita,Mitos y leyendas,Ninguno,"""La Viudita"" es el fantasma de una mujer solitaria y de movimientos sensuales que aparece pasada la medianoche, mostrándose misteriosa, envolvente y seductora. Se decía que sólo se les aparecía a los trasnochadores y mujeriegos que no podían pasar una noche sin tomarse ""unos traguitos"". También se decía que tenía las manos frías y un trato fino y encantador.",https://trinidadtevajaenamorar.com.bo/CulturasMitos/3/detalles,Femenino,Conservada,Sin información,Gobierno Municipal
90,90.png,-14.836166,-64.898675,Trinidad,La leyenda del perro encadenau,"Naturaleza (animales, plantas)",Ninguno,"La leyenda del ""Perro Encadenau"" narra la historia de una pantera negra que, tras atacar a la perra ""Nacha"", la cuida y la protege. Nacha da a luz a un cachorro que, al crecer, se vuelve feroz y es encadenado en el patio de la casa de su dueño, Don José Manuel Isidoro. Tras su muerte, el perro defiende el lugar donde se encontraba el tesoro de su dueño, y se dice que aún se le puede escuchar en la oscuridad de Trinidad. ​",https://trinidadtevajaenamorar.com.bo/CulturasMitos/2/detalles,Masculino,Conservada,Sin información,Gobierno Municipal
91,91.png,-14.835904,-64.898687,Trinidad,Busto de Limbert Hernán Vargas Parada,"Arte, música, literatura y comunicación",Limbert Hernán Vargas Parada,Músico y compositor beniano. El busto se encuentra en una colección-homenaje a 5 músicos trinitarios.,https://www.facebook.com/photo.php?fbid=299535278116256&id=107175430685576&set=a.107891787280607&locale=es_LA,Masculino,Conservada,Sin información,Gobierno Municipal
92,92.png,-14.829345,-64.91242,Trinidad,Madre Trinitaria,Maternidad,Ninguno,Estatua en homenaje a la madre trinitaria.,https://trinidadtevajaenamorar.com.bo/Lugar/60,Femenino,Conservada,Sin información,Sin información
93,93.png,-17.386337,-66.137007,Cochabamba,Estación VII - Jesús consuela a las hijas de Jerusalen,"Religión (santos, ángeles, monjas o padres de la iglesia)",Cristo,Serie de estatuas emplazadas en el cerro de San Pedro conmemorando la Pasión de Cristo,https://www.lostiempos.com/oh/tendencias/20250324/cristo-concordia-viacrucis-mas-grande-del-mundo-nuevo-atractivo-cochabamba,Sin género identificable,Conservada,2024,Alcaldía municipal de Cochabamba
94,94.png,-17.385742,-66.137167,Cochabamba,Estación XI - Jesús es clavado en la cruz,"Religión (santos, ángeles, monjas o padres de la iglesia)",Cristo,Serie de estatuas emplazadas en el cerro de San Pedro conmemorando la Pasión de Cristo,https://www.lostiempos.com/oh/tendencias/20250324/cristo-concordia-viacrucis-mas-grande-del-mundo-nuevo-atractivo-cochabamba,Sin género identificable,Conservada,2024,Sr. Jaime Fuentes Pereira y Flia.
95,95.png,-17.38555,-66.137115,Cochabamba,Estación XII - Jesus es Crucificado,"Religión (santos, ángeles, monjas o padres de la iglesia)",Cristo,Serie de estatuas emplazadas en el cerro de San Pedro conmemorando la Pasión de Cristo,https://www.lostiempos.com/oh/tendencias/20250324/cristo-concordia-viacrucis-mas-grande-del-mundo-nuevo-atractivo-cochabamba,Sin género identificable,Conservada,2024,"Rodolfo Acevedo Schoerpfer, Lily Quintanilla de Acevedo e Hijos"
96,96.png,-17.385163,-66.136561,Cochabamba,Estación XIII - Jesús es bajado de la cruz,"Religión (santos, ángeles, monjas o padres de la iglesia)",Cristo,Serie de estatuas emplazadas en el cerro de San Pedro conmemorando la Pasión de Cristo,https://www.lostiempos.com/oh/tendencias/20250324/cristo-concordia-viacrucis-mas-grande-del-mundo-nuevo-atractivo-cochabamba,Masculino,Conservada,2024,"Familia Muñoz Landívar; Mauricio, Paola, Andrés, Mateo y Mila Muñoz"
97,97.png,-17.384815,-66.136373,Cochabamba,Estación XIV - Jesús es sepultado,"Religión (santos, ángeles, monjas o padres de la iglesia)",Cristo,Serie de estatuas emplazadas en el cerro de San Pedro conmemorando la Pasión de Cristo,https://www.lostiempos.com/oh/tendencias/20250324/cristo-concordia-viacrucis-mas-grande-del-mundo-nuevo-atractivo-cochabamba,Sin género identificable,Conservada,2024,Realizado por el Cap. Alcalde Manfred Reyes Villa B.
98,98.png,-17.384256,-66.135102,Cochabamba,Cristo de la Concordia,"Religión (santos, ángeles, monjas o padres de la iglesia)",Cristo,"El Cristo de la Concordia es una estatua monumental de Jesucristo, ubicada sobre el cerro de San Pedro en la ciudad de Cochabamba, Bolivia, a una altura de 265 m sobre la ciudad.",https://es.wikipedia.org/wiki/Cristo_de_la_Concordia,Masculino,Conservada,2002,Asociación Cristo de la Concordia
99,99.png,-17.384585,-66.134768,Cochabamba,Monumento de la empresa Coboce,Empresas e industria,Ninguno,"Estatua representando el logo de la empresa COBOCE, en razón del aporte que realizóo para la construcción del Cristo de la Concordia en Cochabamba.

En su placa conmemorativa señala: ""COBOCE LTDA. UNA COOPERATIVA COCHABAMBINA UNA INDUSTRIA EN MANOS DEL PUEBLO, APORTO CON EL MEJOR CEMENTO A LA CONSTRUCCIÓN DEL EMBLEMATICO SIMBOLO DEPARTAMENTAL ""EL CRISTO DE LA CONCORDIA""",,Sin género identificable,Levemente a severamente deteriorada,2013,COBOCE
100,100.png,-17.397245,-66.162224,Cochabamba,Personajes de Villa de Oropeza,Política y militar,Ninguno,Monumento en conmemoración a la fundación de la Villa de Oropesa,,Masculino,Levemente a severamente deteriorada,1936,Municipio
101,101.png,-16.491805,-68.13533,La Paz y El Alto,Busto de don Apolinar Jaen,Política y militar,Apolinar Jaen,"Apolinar Jaén fue uno de los partícipes de la revolución del 16 de julio en La Paz.
",https://es.wikipedia.org/wiki/Apolinar_Ja%C3%A9n,Masculino,Levemente a severamente deteriorada,2000,Instituto Murillano y El Club Atletico JAEN
102,102.png,-17.39254,-66.156178,Cochabamba,"Busto de Fidelia Corral Alzerrexca Zambrana de Sánchez, periodista",Ciencia e investigadores,Fidelia Sanchez,"Fue maestra y directora de la Escuela Sara Ugarte de Salamanca, Escuela Mariano Baptista y Liceo Luis Quintín Vila, entre otros establecimientos. Fue periodista y redactora de medios de comunicación.",https://anecdotariocochabamba.blogspot.com/2011/08/la-vida-ejemplar-de-fidelia-corral-de.html,Masculino,Conservada,Sin información,Club del libro Fidelia Corral de Sánchez
103,103.png,-16.491321,-68.13562,La Paz y El Alto,Estatua en memoria de los Héroes de la Guerra del Acre,Política y militar,Ninguno,Sin información,,Masculino,Conservada,2012,Gobierno Autónomo Municipal de L a Paz
104,104.png,-16.489665,-68.136972,La Paz y El Alto,Monumento Las Rabonas,Política y militar,Ninguno,"Monumento dedicado a las ""rabonas,"" mujeres que acompañaban a los soldados durante las guerras, especialmente la Guerra del Pacífico, brindándoles apoyo y asistencia.",,Femenino,Conservada,2011,Instituciones impulsoras Regimiento 1º de Infantería Colorados de Bolivia - Escolta Presidencial y GAMLP
105,105.png,-16.495261,-68.13665,La Paz y El Alto,Monumento al Illimani,"Naturaleza (animales, plantas)",Ninguno,Sin información,,Sin género identificable,Levemente a severamente deteriorada,Sin información,GAMPL
106,106.png,-17.376709,-66.142461,Cochabamba,Busto del General León  J. Galindo,Política y militar,Leon J. Galindo,"General de la independencia de Bolivia, con una participación importante en las batallas de Junín y Ayacucho. Entre 1819 y 1824 participó en las principales batallas de la Guerra de Independencia de Venezuela, Colombia, Ecuador, Perú y Bolivia.",https://generalleongalindocamacho.com/,Masculino,Levemente a severamente deteriorada,2008,Sin información
107,107.png,-17.381552,-66.164481,Cochabamba,Busto de personaje sin información,Ciencia e investigadores,Ninguno,Sin información,,Masculino,Conservada,Sin información,Sin información
108,108.png,-19.052682,-65.268402,Sucre,Estatua de una mujer en Representación en Homenaje a la Masacre de Cosmini y Ayo-Ayo (Cementerio General de Chuquisaca),Política y militar,Ninguno,Monumento levantado en el Cementerio General de Sucre en homenaje a los 27 fallecidos de la batalla de Cosmini – Ayo Ayo ,http://revistamedica.8m.net/MonumentosSucre.htm,Femenino,Conservada,2021,Gobierno Central - Ministerio de Culturas - Municipio de Sucre
109,109.png,-19.051784,-65.26925,Sucre,Tumba de Huascar Gustavo Aparicio,"Arte, música, literatura y comunicación",Huascar Gustavo Aparicio,Cantante y guitarrista sucrense de música folklórica.,https://en.wikipedia.org/wiki/Hu%C3%A1scar_Aparicio,Masculino,Conservada,2014,"Si bien, el fallecimiento y la construcción del nicho fue el año 2013, el año 2014  el colegio Nacional San Luis (Tarija) rindio homenaje al fallecido."
110,110.png,-19.05216,-65.26955,Sucre,Monumento de la Federación Departamental de Hijos (as) de Ex-combatientes y Benemeritos de la Guerra del Chaco,Política y militar,Ninguno,Monumento en homenaje a los beneméritos de la guerra del Chaco,http://revistamedica.8m.net/MonumentosSucre.htm,Sin género identificable,Levemente a severamente deteriorada,2012,Gobierno Autonomo Municipal de Sucre - Directorio Federación Departamental de Hijos (as) de Ex-combatientes y benemeritos de la Guerra del Chaco
111,111.png,-19.054335,-65.268209,Sucre,Plazuela en representación del Sgto. Maximiliano Paredes Tejerina,Política y militar,Maximiliano Paredes Tejerina,Héroe de la guerra del Acre,https://banderaenalto.blogspot.com/2011/05/el-centinela-maximiliano-paredes.html,Masculino,Conservada,2019,Gobierno Autonomo Municipal de Sucre
112,112.png,-19.054887,-65.262732,Sucre,Plaza Oscar Crespo,Deportes,Oscar Crespo,Famoso piloto boliviano de automovilismo,https://correodelsur.com/deporte/20211106/oscar-crespo-el-idolo.html ,Masculino,Conservada,2021,Gobierno Autonomo del Municipio de Sucre
113,113.png,-19.046156,-65.254084,Sucre,Estatua de Juan Bautista Ayorda,Política y militar,Juan Bautista Ayorda,Sin información,,Masculino,Levemente a severamente deteriorada,Sin información,Gobierno Autonomo Municipal de Sucre
114,114.png,-19.045913,-65.253859,Sucre,Estatua de Ladislao Cabrera,Política y militar,Ladislao Cabrera,"Fue un abogado boliviano. En Bolivia, es considerado héroe de la guerra del Pacífico, debido a su papel en la batalla de Calama, donde lideró la organización de la defensa de la ciudad",https://es.wikipedia.org/wiki/Ladislao_Cabrera,Masculino,Levemente a severamente deteriorada,Sin información,Gobierno Autonomo Municipal de Sucre
115,115.png,-19.045664,-65.253616,Sucre,Estatua Eduardo Abaroa,Política y militar,Eduardo Abaroa,Monumento en conmemoración a Eduardo Avaroa y a la guerra del Pacífico,https://www.historia.com.bo/biografia/eduardo-abaroa,Masculino,Levemente a severamente deteriorada,Sin información,Gobierno Autonomo Municipal de Sucre
116,116.png,-19.045572,-65.255509,Sucre,Monumento en Representación de la Sociedad de Ingenieros de Bolivia,Organizaciones de la sociedad civil,Ninguno,"Fundada Con un Decreto Supremo dictado el 9 de Noviembre de 1905, durante la presidencia del Dr. Ismael Montes y rubricado por el entonces Ministro de Justicia e Instrucción Pública Dr. Juan Misael Saracho, se crea, a través de la Dirección de Obras Públicas, un Registro de Matrículas de Ingenieros, en el que debían inscribirse todos los Profesionales de las distintas ramas de la Ingeniería, después de obtener un Título Nacional ó de hacer revalidar los que hubiesen obtenido en el extranjero.",https://www.sib.org.bo/institucion/historia.html,Sin género identificable,Conservada,2009,SOCIEDAD DE INGENIEROS DE BOLIVIA
117,117.png,-19.044847,-65.267467,Sucre,"Plazuela ""Scouts Chuquisaca"" - Estatua en Homenaje a Baden Powel.",Organizaciones de la sociedad civil,Baden Powel,Fue un militar y escritor británico fundador del Movimiento Scout Mundial.,https://es.wikipedia.org/wiki/Robert_Baden-Powell,Masculino,Levemente a severamente deteriorada,2007,Gobierno Autonomo Municipal de Sucre - Asociación de Scouts de Bolivia
118,118.png,-19.05289,-65.249562,Sucre,Monumento al Cap. Pedro Anzurez de Camporedondo,Política y militar,Pedro Anzurez,Fue un conquistador y explorador español que actuó en la conquista del Perú y en las primeras fases de la guerra civil entre los conquistadores del Perú,https://es.wikipedia.org/wiki/Pedro_Anz%C3%BArez_de_Camporredondo,Masculino,Levemente a severamente deteriorada,1987,"GRUPO ""SUCRE"" RESIDENTES DE SANTA CRUZ - GOBIERNO AUTONOMO MUNICIPAL DE SUCRE"
119,119.png,-19.045456,-65.249659,Sucre,Estatua de un soldado en representación a la Batalla de Alto Alianza,Política y militar,Ninguno,Sin información,http://revistamedica.8m.net/MonumentosSucre.htm,Sin género identificable,Conservada,Sin información,Gobierno Autonomo Municipal de Sucre
120,120.png,-19.042951,-65.256557,Sucre,Plazuela dedicada al departamento de Tarija,Política y militar,Ninguno,Sin información,,Masculino,Conservada,Sin información,GAM SUCRE - GAM TARIJA
121,121.png,-19.051429,-65.255758,Sucre,Estatua en Honor al Miguel Grau Seminario,Política y militar,Miguel Grau Seminario,"Fue un marino militar y político peruano y póstumo gran almirante de la Marina de Guerra del Perú. Durante la guerra del Pacífico, comandó el monitor Huáscar y mantuvo a raya a la escuadra chilena durante seis meses, sucumbiendo finalmente de manera heroica en el combate naval de Angamos, enfrentado a fuerzas muy superiores. ",https://es.wikipedia.org/wiki/Miguel_Grau,Masculino,Conservada,1999,Gobierno Autonomo Municipal de Sucre
122,122.png,-19.050578,-65.261391,Sucre,Monumento en Homenaje a los Excombatientes de Bolivia en la Guerra del Chaco,Política y militar,Ninguno,Sin información,http://revistamedica.8m.net/MonumentosSucre.htm,Sin género identificable,Levemente a severamente deteriorada,1999,Gobierno Autonomo Municipal de Sucre
123,123.png,-14.827842,-64.906973,Trinidad,Avioneta,Política y militar,Ninguno,Avioneta central en la Plaza del Aviador de Trinidad,https://lapalabradelbeni.com/post/plazuela-el-aviador-el-colocado-de-una-avioneta-cessna-complementa-sus-atractivos,Femenino,Conservada,Sin información,Gobierno Autónomo Municipal de Trinidad
124,124.png,-14.827756,-64.907071,Trinidad,Busto de José Elias Nacif Barboza,Política y militar,José Elias Nacif Barboza,Busto perteneciente a una serie de bustos de aviadores destacados en la Plaza del Aviador de Trinidad,https://lapalabradelbeni.com/post/plazuela-el-aviador-el-colocado-de-una-avioneta-cessna-complementa-sus-atractivos,Masculino,Conservada,Sin información,Sin información
125,125.png,-14.827752,-64.907073,Trinidad,Busto de Cap. Javier Chávez Roca,Política y militar,Javier Chávez Roca,Busto perteneciente a una serie de bustos de aviadores destacados en la Plaza del Aviador de Trinidad,https://lapalabradelbeni.com/post/plazuela-el-aviador-el-colocado-de-una-avioneta-cessna-complementa-sus-atractivos,Masculino,Conservada,Sin información,Sin información
126,126.png,-14.827696,-64.907025,Trinidad,Busto de Cap. Hans Alexis Soruco Risco,Política y militar,Hans Alexis Soruco Risco,Busto perteneciente a una serie de bustos de aviadores destacados en la Plaza del Aviador de Trinidad,https://lapalabradelbeni.com/post/plazuela-el-aviador-el-colocado-de-una-avioneta-cessna-complementa-sus-atractivos,Masculino,Conservada,Sin información,Sin información
127,127.png,-14.827653,-64.907041,Trinidad,Busto de Cap. Winston Julio Rodríguez Daza,Política y militar,Winston Julio Rodríguez Daza,Busto perteneciente a una serie de bustos de aviadores destacados en la Plaza del Aviador de Trinidad,https://lapalabradelbeni.com/post/plazuela-el-aviador-el-colocado-de-una-avioneta-cessna-complementa-sus-atractivos,Masculino,Conservada,Sin información,Sin información
128,128.png,-14.828355,-64.907319,Trinidad,Capibara,"Naturaleza (animales, plantas)",Ninguno,Sin información,,Femenino,Conservada,Sin información,Sin información
129,129.png,-14.828856,-64.907882,Trinidad,Avioneta,Otro,Ninguno,Sin información,,Sin género identificable,Conservada,2022,Sin información
130,130.png,-14.829469,-64.908909,Trinidad,Aviador,Política y militar,Ninguno,Sin información,,Masculino,Conservada,Sin información,Sin información
131,131.png,-14.830104,-64.909285,Trinidad,Estatua de Hernán Nogales Duran,Agricultura y ganadería,Hernán Nogales Durán,Productor ganadero del Beni,,Masculino,Levemente a severamente deteriorada,2013,Gobierno Autónomo Municipal Santísima Trinidad
132,132.png,-14.829744,-64.910828,Trinidad,Monumento al Ganadero,Agricultura y ganadería,Ninguno,Se observa un ganadero montado en el caballo. La estatua fue donada a Trinidad por la pareja de Alcides Sattori Gómez y su esposa Graciela Cortés.,,Masculino,Levemente a severamente deteriorada,Sin información,Sociedad civil
133,133.png,-14.830774,-64.912433,Trinidad,Mujer indígena embarazada,Maternidad,Ninguno,Sin información,,Femenino,Levemente a severamente deteriorada,Sin información,Sin información
134,134.png,-14.831206,-64.907811,Trinidad,Soldado con arma de fuego en la mano,Política y militar,Ninguno,Sin información,,Masculino,Levemente a severamente deteriorada,Sin información,Sin información
135,135.png,-14.831291,-64.908005,Trinidad,Estatua de German Busch Becerra,Política y militar,Germán Busch,"Germán Busch Becerra fue un oficial militar y estadista boliviano que fue presidente de Bolivia desde 1937 hasta 1939. Es recordado por su rol en la Guerra del Chaco y su gobierno, que introdujo importantes reformas sociales y económicas. ","https://es.wikipedia.org/wiki/Germ%C3%A1n_Busch_Becerra#:~:text=Presidente%20constitucional%20de%20Bolivia%20(1938%2D1939),-Germ%C3%A1n%20Busch%20sentado&text=De%20acuerdo%20a%20la%20convocatoria,27%20de%20mayo%20de%201938).",Masculino,Levemente a severamente deteriorada,Sin información,Sin información
136,136.png,-14.831441,-64.907834,Trinidad,Estatua de Carmelo Cuellar Jiménez,Política y militar,Carmelo Cuellar Jiménez,Carmelo Cuéllar Jiménez fue un coronel boliviano y beniano. Es reconocido por su valentía y liderazgo durante la Guerra del Chaco.,https://www.pub.eldiario.net/movil/index.php?n=50&a=2020&m=07&d=23,Masculino,Levemente a severamente deteriorada,Sin información,Sin información
137,137.png,-14.832148,-64.901449,Trinidad,Estatua del Hermano Pelayo,Maestros,Hermano Pelayo,Cura trinitario dedicado a la enseñanza de los niños,https://www.facebook.com/LaSalleTddOficial/videos/bauldelosrecuerdosesta-producci%C3%B3n-se-hizo-cuando-el-hno-pelayo-cumpli%C3%B3-90a%C3%B1os-nu/168342207917931/,Masculino,Conservada,2012,Sin información
138,138.png,-14.835623,-64.902395,Trinidad,Hombre sosteniendo la bandera del departamento del Beni,Pueblos indígenas,Ninguno,Sin información,,Masculino,Conservada,Sin información,Sin información
139,139.png,-19.035349,-65.257896,Sucre,Fuente de los Deportes en homenaje al Prof. Julio Sandoval Carrasco (Mentor del Deporte),Deportes,Julio Sandoval Carrasco,"Obra realizada como homenaje al Profesor Julio Sandoval Carrasco, impulsor del deporte chuquisaqueño y dirigente deportivo.",https://bicentenariosucre.blogspot.com/2009/03/monumentos-de-la-ciudad-de-sucre.html,Sin género identificable,Conservada,2006,Gobierno Autonomo Municipal de Sucre
140,140.png,-19.038316,-65.256659,Sucre,Eduardo Abaroa,Política y militar,Eduardo Abaroa,"Estatua de Eduardo Avaroa, en homenaje a la Junta Vecinal del mismo Nombre",https://www.historia.com.bo/biografia/eduardo-abaroa,Masculino,Levemente a severamente deteriorada,2002,"Junta Vecinal ""EDUARDO AVAROA"" - Gobierno Autónomo Municipal de Sucre"
141,141.png,-19.042814,-65.258502,Sucre,Trabajadores de la Costura,Organizaciones de la sociedad civil,Ninguno,Estatua en homenaje a la Asociación de Sastres y Modistas en Obra Fina Sucre,https://sucre.bo/plazoleta-de-san-sebastian-fue-nominada-como-trabajadores-de-la-costura/,Sin género identificable,Conservada,2023,Asociación de Sastres y Modistas en Obra Fina Sucre
142,142.png,-19.042743,-65.259234,Sucre,"Escalinata ""Casiano Tejada Molina""",Política y militar,Casiano Tejada Molina,Folklorista sucrense especializado en el armonio,https://gacetamunicipalsucre.gob.bo/docs/normas/ordenanza/34825/om-062-03.pdf,Masculino,Levemente a severamente deteriorada,Sin información,Gobierno Autonomo Municipal de Sucre
143,143.png,-19.048118,-65.259894,Sucre,Estatua en Homenaje a José Bernardo Monteagudo,Política y militar,José Bernardo Monteagudo,"Bernardo José Monteagudo (San Miguel de Tucumán, 20 de agosto de 1789-Lima, 28 de enero de 1825) fue un abogado, político, periodista, militar y revolucionario radicalizado argentino, que participó en los procesos independentistas en el Río de la Plata, Chile y Perú.",https://es.wikipedia.org/wiki/Bernardo_de_Monteagudo,Masculino,Conservada,Sin información,Gobierno Central - Municipio
144,144.png,-19.04757,-65.259425,Sucre,Estatua en Homenaje a Jaime de Zudañez de la Torre,Política y militar,Jaime Zudañez,"Fue un abogado y político charquino que se destacó como uno de los participantes de la Revolución de Chuquisaca, la cual dio inicio a los “levantamientos revolucionarios autonomistas”.",https://es.wikipedia.org/wiki/Jaime_de_Zud%C3%A1%C3%B1ez,Masculino,Conservada,Sin información,Gobierno Central - Municipio
145,145.png,-17.382586,-66.160953,Cochabamba,Declaracion de Paz Mundial HWPL,Otro,Ninguno,"Mosaico circular HWPL, paloma de la paz con inscripciones artisticas de cristal, en homenaje a Cochabamba en el reverso",https://oruroradiofides.com/blogs/proyectos-de-paz-en-170-paises-hwpl-celebra-una-decada-de-compromiso-global-con-la-paz?page=58,Sin género identificable,Conservada,2023,"Heavenly Culture, World Peace, Restoration of Light"
147,147.png,-17.386369,-66.162289,Cochabamba,Soroptimist International Region America del Sur,Otro,Ninguno,Monumento conmemorativo con logo circular superior de Soroptimist International,https://www.opinion.com.bo/articulo/cultura/soroptimist-impulsa-profesionalizacion-mujeres-traves-premio-vive-sueno/20200906083239785718.html,Sin género identificable,Levemente a severamente deteriorada,2020,Soroptimist International
148,148.png,-17.386103,-66.161946,Cochabamba,Homenaje a Margarita Tomsich de Catacora,Otro,Margarita Tomisich de Catacora,Busto femenino de Margarita en memoria del voluntariado de la juventud boliviana,https://www.opinion.com.bo/articulo/cultura/agenda-social/20070628180525268974.html,Femenino,Levemente a severamente deteriorada,2005,"Comite Civico Femenino de Cochabamba, Centro de Capacitacion Tecnica del Voluntariado"
149,149.png,-17.391284,-66.1651,Cochabamba,Niños estudiando,"Religión (santos, ángeles, monjas o padres de la iglesia)",Ninguno,Monumento de maestra o monja educadora con mano delante con dos niños a los costados sosteniendo libros,https://www.facebook.com/share/p/1ALwBKNCmx/?mibextid=xfxF2i,Ambos,Levemente a severamente deteriorada,Sin información,Sin información
150,150.png,-17.390423,-66.162951,Cochabamba,Estatua de Genoveva Rios,Política y militar,Genoveva Ríos,"Genoveva Ríos fue una mujer boliviana, considerada una heroína de la Guerra del Pacífico.",https://es.wikipedia.org/wiki/Genoveva_R%C3%ADos,Femenino,Levemente a severamente deteriorada,2013,Asamblea Legislativa Departamental de Cochabamba
151,151.png,-17.39015,-66.162768,Cochabamba,Escultura femenina,Arte abstracto,Ninguno,Sin información,https://www.facebook.com/cochaciudad/posts/en-cochabamba-los-espacios-verdes-conforman-nuestra-identidad-te-presentamos-alg/4090774067668238/,Femenino,Conservada,Sin información,Sin información
152,152.png,-17.388,-66.21843,Cochabamba,Estatua en homenaje al minero boliviano,"Organizaciones sociales (mineros, campesinos, dirigentes sociales)",Ninguno,Sin información,,Masculino,Levemente a severamente deteriorada,2006,Alcaldía
153,153.png,-17.387827,-66.219044,Cochabamba,Busto de Pantaleón Dalence,Ciencia e investigadores,Pantaleón Dalence,"Jurista boliviano considerado el ""Padre de la Justicia Boliviana"". Su mayor contribución al derecho boliviano fue haber delimitado las atribuciones de los tres poderes de estado y haber sido “guardián celoso” de la Constitución.",https://www.lostiempos.com/actualidad/opinion/20200205/columna/pantaleon-dalence-padre-justicia-boliviana,Masculino,Conservada,2007,Otb huanuni
154,154.png,-17.39393,-66.166591,Cochabamba,Escultura de Alejo Calatayud en el Puente a Quillacollo,Política y militar,Alejo Calatayud,Estatua de metal en homenaje a Alejo Calatayud,https://www.lostiempos.com/actualidad/cultura/20081202/rinden-homenaje-alejo-calatayud,Masculino,Levemente a severamente deteriorada,Sin información,Sin información
155,155.png,-17.393674,-66.165698,Cochabamba,Busto de Rafael Urquidi,Política y militar,Rafael Urquidi,Fundador de ELFEC en 1908.,https://www.facebook.com/share/p/19iVHTswNh/?mibextid=xfxF2i,Masculino,Conservada,1945,El Club Social a Rafael Urquidi
156,156.png,-14.835484,-64.901491,Trinidad,"Representacion del departamento del Beni, sostenido por una mujer, niños, un hombre indígena y un soldado.",Otro,Ninguno,Sin información,,Masculino,Conservada,Sin información,Sin información
157,157.png,-14.835615,-64.902258,Trinidad,Busto del Mons. Jesus Pérez Rodríguez D.F.M,"Religión (santos, ángeles, monjas o padres de la iglesia)",Mons. Jesús Perez Rodriguez,"Jesús Pérez fue un presbítero católico español, en 1989 fue designado como Arzobizpo de Sucre en Bolivia.","https://cba.ucb.edu.bo/mons-jesus-perez-rodriguez-ofm/#:~:text=%E2%80%9CMonse%C3%B1or%20Jes%C3%BAs%20P%C3%A9rez%20fue%20el,Palmas%20de%20Gran%20Canaria%2C%20Espa%C3%B1a.",Masculino,Conservada,2009,Sin información
158,158.png,-16.501992,-68.129208,La Paz y El Alto,Illa,Pueblos indígenas,Ninguno,SemonumentoEsta estatua es la representación de una Illa. Se pueden observar grabados y relieves con patrones geométricos y antropomorfos.,https://anteriorportal.erbol.com.bo/galeria/la_illa_toma_posesion_del_parque_urbano_central_0#/0,Sin género identificable,Levemente a severamente deteriorada,Sin información,Sin información
159,159.png,-17.409053,-66.142721,Cochabamba,La Tutuma,"Naturaleza (animales, plantas)",Ninguno,"La estatua de la ""Tutuma"" representa esta vasija de origen vegetal tradicional de Cochabamba. Está construida con una estructura de fierro y malla metálica, recubierta con mortero de cemento. Actualmente, presenta un alto grado de deterioro: sus colores, originalmente amarillo en el interior y celeste en el exterior, se han desvanecido con el tiempo y la exposición al sol, siendo apenas visibles debido al desgaste, mimetizándose con el entorno. Además, la superficie muestra grafitis de firmas y signos hechos con pintura en aerosol, La parte cóncava de la estatua acumula basura, lo que agrava su estado de abandono.",,Sin género identificable,Levemente a severamente deteriorada,Sin información,Sin información
160,160.png,-17.408338,-66.143226,Cochabamba,La Flor,"Naturaleza (animales, plantas)",Ninguno,"La estatua de la ""Flor"". Está construida con una estructura de fierro y malla metálica, recubierta con mortero de cemento. Actualmente, presenta un alto grado de deterioro: sus colores, originalmente azul en los pétalos y amarillo en la parte central, se han desvanecido con el tiempo y la exposición al sol, siendo apenas visibles debido al desgaste, mimetizándose con el entorno. Los pétalos de la estatua acumulan agua de las pasadas lluvias, lo que agrava su estado de abandono y la deteriora más.",,Sin género identificable,Levemente a severamente deteriorada,Sin información,Sin información
161,161.png,-17.406306,-66.145184,Cochabamba,"Fuente de agua: ""De La Integración""",Otro,Ninguno,"Monumento: Fuente de agua ""De La Integración""",,Sin género identificable,Conservada,2007,Honorable Municipalidad de Cochabamba
162,162.png,-17.405685,-66.145104,Cochabamba,La Mariposa,"Naturaleza (animales, plantas)",Ninguno,"La estatua de la ""Mariposa"". Está construida con una estructura de fierro y malla metálica, recubierta con mortero de cemento. Actualmente, presenta un alto grado de deterioro: sus colores, originalmente celeste, verde, amarillo y un poco de rojo en las alas, se han desvanecido con el tiempo y la exposición al sol, siendo apenas visibles debido al desgaste, mimetizándose con el entorno. Los parte cóncava del centro de la estatua acumula agua de las pasadas lluvias, lo que agrava su estado de abandono y la deteriora más. La acompañan dos estatuas de peces, también severamente deteriorados, con recubrimiento de mortero y una técnica llamada trencadís (es un tipo de mosaico que se realiza con fragmentos irregulares de cerámica, vidrio u otros materiales, generalmente de colores brillantes).",,Sin género identificable,Levemente a severamente deteriorada,Sin información,Sin información
163,163.png,-17.404883,-66.14549,Cochabamba,El Choclo,"Naturaleza (animales, plantas)",Ninguno,"La estatua de la ""Choclo"". Está construida con una estructura de fierro y malla metálica, recubierta con mortero de cemento. Actualmente, presenta un alto grado de deterioro: sus colores, originalmente Amarillo, y Blanco, se han desvanecido con el tiempo y la exposición al sol, siendo apenas visibles debido al desgaste, mimetizándose con el entorno.",,Sin género identificable,Levemente a severamente deteriorada,Sin información,Sin información
164,164.png,-17.40457,-66.145623,Cochabamba,Los Cántaros,Otro,Ninguno,"La estatua de los ""Cántaros"". Está construida con una estructura de fierro y malla metálica, recubierta con mortero de cemento. Actualmente, presenta un alto grado de deterioro y sus colores típicos de los cántaros se mimetizan con el entorno, se nota el paso del tiempo ya que la exposición al sol y lluvias, hizo más visible su desgaste. Antes también formaba parte de este conjunto, una estatua de una chola cochala, con pollera roja y un sombrero de copa alta y cinta negra, que aunque no es un accesorio originario, fue muy representativo.",,Sin género identificable,Levemente a severamente deteriorada,Sin información,Sin información
165,165.png,-19.046003,-65.266183,Sucre,Estatua en Homenaje al Padre de la Medicina - Hipócrates de Cos,Ciencia e investigadores,Hipócrates,"Estatua de Hipócrates, considerado el padre de la medicina. Estatua ubicada en la Facultad de Medicina calle Urriolagoitia de Sucre.",http://revistamedica.8m.net/MonumentosSucre.htm,Masculino,Conservada,2008,Universidad Mayor Real Pontifica San Francisco Xavier
166,166.png,-17.39326,-66.161538,Cochabamba,Virgen Maria con corona de estrellas de la Plazuela Corazonistas,"Religión (santos, ángeles, monjas o padres de la iglesia)",Virgen María,Madre de Jesús de Nazaret.,https://es.wikipedia.org/wiki/Mar%C3%ADa_(madre_de_Jes%C3%BAs),Femenino,Levemente a severamente deteriorada,Sin información,Iglesia Corazón de María
167,167.png,-17.393301,-66.161812,Cochabamba,Fuente de agua con Querubines,"Religión (santos, ángeles, monjas o padres de la iglesia)",Ninguno,Colección de seis querubines en dos fuentes en la plazuela corazonistas en Cochabamba.,https://www.lostiempos.com/actualidad/local/20100125/mutilados-corazonistas,Sin género identificable,Conservada,1996,Sin información
168,168.png,-17.39315,-66.161163,Cochabamba,Fuente de agua con Querubines,"Religión (santos, ángeles, monjas o padres de la iglesia)",Ninguno,Colección de seis querubines en dos fuentes en la plazuela corazonistas en Cochabamba.,https://www.lostiempos.com/actualidad/local/20100125/mutilados-corazonistas,Sin género identificable,Conservada,Sin información,Sin información
169,169.png,-17.39055,-66.157938,Cochabamba,Monseñor Francisco Maria del Granado,"Religión (santos, ángeles, monjas o padres de la iglesia)",Francisco María del Granado,"Sacerdote, orador, profesor y poeta, nació en Cochabamba en 1835 y falleció en esa misma ciudad en 189",http://www.delgranado.org/francisco_maria_del_granado.htm,Masculino,Levemente a severamente deteriorada,Sin información,Convento de Santa Teresa
170,170.png,-17.390493,-66.157971,Cochabamba,Javier del Granado,"Arte, música, literatura y comunicación",Javier del Granado,"Poeta, novelista y médico cochabambino.",https://www.lostiempos.com/doble-click/cultura/20241009/poeta-del-milenio-continua-sumando-merecidos-honores,Masculino,Levemente a severamente deteriorada,1977,United Poets Laurete International
171,171.png,-17.391131,-66.194299,Cochabamba,Busto de Severino Rodríguez Pérez,Empresas e industria,Severino Rodríguez Pérez,Fundador de la cámara de industria de Cochabamba,,Masculino,Conservada,2003,Cámara de la industria de Cochabamba
172,172.png,-14.831636,-64.907518,Trinidad,Busto de German Busch Becerra,Política y militar,Germán Busch,"Germán Busch Becerra fue un oficial militar y estadista boliviano que fue presidente de Bolivia desde 1937 hasta 1939. Es recordado por su rol en la Guerra del Chaco y su gobierno, que introdujo importantes reformas sociales y económicas. ","https://es.wikipedia.org/wiki/Germ%C3%A1n_Busch_Becerra#:~:text=Presidente%20constitucional%20de%20Bolivia%20(1938%2D1939),-Germ%C3%A1n%20Busch%20sentado&text=De%20acuerdo%20a%20la%20convocatoria,27%20de%20mayo%20de%201938).",Masculino,Levemente a severamente deteriorada,Sin información,Sin información
173,173.png,-14.831392,-64.907759,Trinidad,Soldado de la Guerra del Chaco,Política y militar,Ninguno,Sin información,,Masculino,Levemente a severamente deteriorada,Sin información,Sin información
174,174.png,-14.831343,-64.907718,Trinidad,En memoria al soldado desconocido,Política y militar,Ninguno,Sin información,,Masculino,Conservada,Sin información,Sin información
175,175.png,-14.831362,-64.907851,Trinidad,Estatua de Carmelo Cuellar Jiménez,Política y militar,Carmelo Cuellar Jiménez,Carmelo Cuéllar Jiménez fue un coronel boliviano y beniano. Es reconocido por su valentía y liderazgo durante la Guerra del Chaco.,https://www.pub.eldiario.net/movil/index.php?n=50&a=2020&m=07&d=23,Masculino,Levemente a severamente deteriorada,Sin información,Sin información
176,176.png,-14.83297,-64.905638,Trinidad,Cruz católica,"Religión (santos, ángeles, monjas o padres de la iglesia)",Ninguno,Sin información,,Femenino,Conservada,Sin información,Sin información
177,177.png,-16.505663,-68.13659,La Paz y El Alto,Hanukka,"Organizaciones sociales (mineros, campesinos, dirigentes sociales)",Ninguno,Festividad judía que conmemora la reedificación del Segundo Templo de Jerusalén y la rebelión de los macabeos contra el Imperio seléucida.,https://es.wikipedia.org/wiki/Januc%C3%A1,Sin género identificable,Levemente a severamente deteriorada,1968,Comunidad judía en Bolivia
178,178.png,-16.5025,-68.132133,La Paz y El Alto,Monumento a Cristoforo Colombo,Política y militar,Cristóbal Colón,"Navegante y gobernante de las Indias Occidentales, al servicio de la Corona de Castilla, que encabezó el denominado Descubrimiento de América en 1492",https://es.wikipedia.org/wiki/Crist%C3%B3bal_Col%C3%B3n,Masculino,Levemente a severamente deteriorada,1926,Colonia italiana residente en La Paz
179,179.png,-16.502331,-68.128769,La Paz y El Alto,Illa del Ekeko,"Organizaciones sociales (mineros, campesinos, dirigentes sociales)",Ekeko,Representación de la reconocida deidad andina de la abundancia y la prosperidad,,Masculino,Conservada,Sin información,Sin información
180,180.png,-16.504451,-68.125692,La Paz y El Alto,Monumento a un libro,"Arte, música, literatura y comunicación",Ninguno,Homenaje al libro como portador de mensaje que viaja por el universo.,,Sin género identificable,Levemente a severamente deteriorada,2012,Comité departamental de clubes del libro La Paz.
181,181.png,-16.508184,-68.122608,La Paz y El Alto,Monumento Héroes del 15 de enero,Política y militar,Ninguno,Parque memorial 15 de enero. Reúne las fotos y nombres de las personas que han sido asesinadas en la dictadura de Luis García Mesa.,https://www.noticiasfides.com/nacional/sociedad/memorial-15-de-enero-un-significativo-homenaje-a-los-martires-de-la-calle-harrington-185484,Sin género identificable,Conservada,2005,Gobierno Municipal de La Paz
182,182.png,-16.515795,-68.155301,La Paz y El Alto,Obelisco El Alto,Arte abstracto,Ninguno,Sin información,https://www.facebook.com/watch/?v=1983304315168012,Sin género identificable,Levemente a severamente deteriorada,2015,Gobierno autónomo municipal de el alto
183,183.png,-16.512522,-68.153649,La Paz y El Alto,Busto del Compadre Carlos Palenque,"Arte, música, literatura y comunicación",Carlos Palenque,"Carlos Palenque fue un destacado cantante, músico, empresario, presentador de televisión y político boliviano; pero es más recordado por su labor social, a través del reconocido programa “La Tribuna Libre del Pueblo”, caracterizado por su trabajo y apoyo social hacia las personas con pocos recursos económicos.",https://elaltodigital.com/la-estatua-del-compadre-carlos-palenque-que-esta-en-el-alto/,Masculino,Conservada,2019,Mi teleférico
184,184.png,-16.516675,-68.155548,La Paz y El Alto,Eduardo Abaroa,Política y militar,Eduardo Abaroa,Estatua en conmemoración a Eduardo Abaroa y a la guerra del Pacífico,https://www.historia.com.bo/biografia/eduardo-abaroa,Masculino,Levemente a severamente deteriorada,2017,Gobierno autónomo municipal de el alto
185,185.png,-16.520359,-68.157143,La Paz y El Alto,Simón Bolívar,Política y militar,Simón Bolívar,"Fue un militar y político venezolano que luchó por la independencia de varios países de Sudamérica, entre ellos Bolivia.",https://www.biografiasyvidas.com/biografia/b/bolivar.htm,Masculino,Levemente a severamente deteriorada,Sin información,Alcaldía municipal
186,186.png,-16.5208,-68.157193,La Paz y El Alto,Estatua de Adolfo Kolpin,"Religión (santos, ángeles, monjas o padres de la iglesia)",Adolfo Kolping,Fue un sacerdote católico alemán.,https://es.wikipedia.org/wiki/Adolfo_Kolping,Masculino,Conservada,2016,Fundación padre Adolfo kolpin
187,187.png,-17.392645,-66.156447,Cochabamba,condor de los andes de tiwanaku del pasaje Fidelia Sanchez,"Naturaleza (animales, plantas)",Fidelia Sanchez,"Fue maestra y directora de la Escuela Sara Ugarte de Salamanca, Escuela Mariano Baptista y Liceo Luis Quintín Vila, entre otros establecimientos. Fue periodista y redactora de medios de comunicación.",https://anecdotariocochabamba.blogspot.com/2011/08/la-vida-ejemplar-de-fidelia-corral-de.html,Sin género identificable,Conservada,Sin información,Sin información
188,188.png,-19.04697,-65.26081,Sucre,Busto de Mauro Núñez Cáceres,Política y militar,Mauro Núñez Cáceres,"Mauro Núñez Cáceres fue un músico y charanguista boliviano, considerado como el «padre del folklor boliviano».",https://www.facebook.com/museocasadelalibertad/videos/mauro-n%C3%BA%C3%B1ez-y-el-busto-de-sim%C3%B3n-bol%C3%ADvar/918046645488269/,Masculino,Conservada,1966,Artista Mauro Nuñez Caceres
189,189.png,-17.385599,-66.171315,Cochabamba,Soldados en acción,Política y militar,Ninguno,Sin información,,Masculino,Levemente a severamente deteriorada,Sin información,Sin información
190,190.png,-19.04697,-65.26081,Sucre,Estatua en Homenaje a Piaguaiki Tumpa - Lider Guarani,Política y militar,Apiguaiki Tumpa,Fue uno de los líderes más importantes de los indígenas tapietes de fines del siglo XIX en la República de Bolivia.,https://es.wikipedia.org/wiki/Apiaguaiki_Tumpa,Masculino,Conservada,Sin información,Gobierno Central
191,191.png,-17.385226,-66.171502,Cochabamba,Boquerón,Política y militar,Ninguno,Sin información,,Masculino,Conservada,Sin información,Sin información
192,192.png,-17.456301,-66.160637,Cochabamba,El Minero,"Organizaciones sociales (mineros, campesinos, dirigentes sociales)",Ninguno,"Monumento al minero para la OTB 21 de diciembre, compuesta por migrantes de las minas.",,Masculino,Levemente a severamente deteriorada,2012,"Alcaldía de Cochabamba, OTB 21 de Diciembre"
193,193.png,-17.385663,-66.171256,Cochabamba,Soldado,Política y militar,Ninguno,Sin información,,Masculino,Levemente a severamente deteriorada,Sin información,Sin información
194,194.png,-17.456424,-66.160807,Cochabamba,Pórtico de bienvenida al barrio 21 de diciembre con la estatua de un minero,"Organizaciones sociales (mineros, campesinos, dirigentes sociales)",Ninguno,Pórtico con la estatua de un minero para la OTB 21 de diciembre,,Masculino,Conservada,Sin información,Sin información
195,195.png,-17.385048,-66.17166,Cochabamba,Soldados y Virgen de Charagua,"Religión (santos, ángeles, monjas o padres de la iglesia)",Virgen María,Monumento en honor a la Guerra del Chaco en el parque Excombatientes de Cochabamba.,https://www.lostiempos.com/actualidad/local/20080810/mejoran-parque-excombatientes,Sin género identificable,Levemente a severamente deteriorada,Sin información,Sin información
196,196.png,-17.454325,-66.156344,Cochabamba,"Pórtico de bienvenida de la OTB San Isidro 24 de junio, con una escultura de casco de minero","Organizaciones sociales (mineros, campesinos, dirigentes sociales)",Ninguno,Sin información,,Sin género identificable,Conservada,2022,Alcaldía de Cochabamba
197,197.png,-17.384467,-66.17736,Cochabamba,Memorial: Tres pasos al frente en la historia,Política y militar,Ninguno,"Memorial en honor a la ""Generación tres pasos al frente"" de la guerra del Chaco. Emplazado en el parque Excombatientes.",,Sin género identificable,Levemente a severamente deteriorada,2016,Instituto de investigación militar: Coronel Julio Díaz Arguedas
198,198.png,-17.429325,-66.158849,Cochabamba,Pórtico de bienvenida a la OTB Don Bosco con una estatua de la Virgen María,"Religión (santos, ángeles, monjas o padres de la iglesia)",Virgen María,Sin información,,Femenino,Conservada,2003,"Línea de Colectivos 3V, OTB Don Bosco"
199,199.png,-17.379908,-66.172088,Cochabamba,Fuente Armonía,Otro,Ninguno,Sin información,,Femenino,Conservada,1995,"Directorio y vecinos del barrio Venezuela ""Gran Parque Demetrio Canelas"""
200,200.png,-17.421556,-66.157646,Cochabamba,Don Bosco y Domingo Savio,"Religión (santos, ángeles, monjas o padres de la iglesia)",Don Bosco y Domingo Savio,Estatua en conmemoración al centenario de la llegada de los Salesianos a Bolivia,,Masculino,Levemente a severamente deteriorada,1996,Salesianos en Bolivia
201,201.png,-17.379936,-66.168527,Cochabamba,Demetrio Canelas,Ciencia e investigadores,Demetrio Canelas,"Destacado escritor y periodista cochabambino. Fundador de los medios ""La Patria"" (1919) y ""Los Tiempos"" (1943)",https://elias-blanco.blogspot.com/2011/07/demetrio-canelas-canelas.html,Masculino,Levemente a severamente deteriorada,1983,Asociación de periodistas
250,250.png,-17.420291,-66.157942,Cochabamba,Padre Antonio Diez del Pozo,"Religión (santos, ángeles, monjas o padres de la iglesia)",Antonio Diez del Pozo,"Antonio Diez del Pozo, fue un padre salesiano que residió en Cochabamba. Se destaca por ser un impulsor los colegios populares en la zona sud y otras obras que aportaron de gran manera a la población estudiantil y los barrios.",https://www.facebook.com/media/set/?set=a.10152698490517158.1073741848.258117547157&type=1,Masculino,Conservada,2014,Colegio Santo Domigo Savio
203,203.png,-17.370079,-66.171183,Cochabamba,"Estatua del circulo de exgobernadores ""Cochabamba"" donde se observan dos leones","Naturaleza (animales, plantas)",Ninguno,Sin información,,Sin género identificable,Conservada,2018,Asociación internacional de clubes de leones
204,204.png,-17.4198,-66.15762,Cochabamba,Busto de Jorge Bartos Balog,Otro,Jorge Bartos Balog,"Ingeniero Jorge Bartos Balog, miembro de la Cámara Boliviana de Construcción. En 1956 fue elegido como Presidente de la Federación Interamericana de la Industria de la Construcción (FIIC) ",https://www.caboco.org/pagina/resena-historica,Masculino,Levemente a severamente deteriorada,1989,Alcaldía de Cochabamba
205,205.png,-17.39408,-66.145726,Cochabamba,La Modulora,"Representación del cuerpo o la ""belleza"" femenina",Ninguno,"“La Modulora” es una estatua creada en la FAyCH–UMSS como respuesta crítica al Modulor de Le Corbusier. Representa un cuerpo femenino y reivindica la diversidad de proporciones corporales en el diseño arquitectónico, visibilizando que no existe un único estándar humano.",,Femenino,Conservada,Sin información,Facultad de Arquitectura y Ciencias del Hábitat
206,206.png,-17.432581,-66.155574,Cochabamba,San Francisco de Asís,"Religión (santos, ángeles, monjas o padres de la iglesia)",San Francisco,"Fue un santo umbro (italiano), diácono y fundador de la Orden Franciscana",https://es.wikipedia.org/wiki/Francisco_de_As%C3%ADs,Masculino,Levemente a severamente deteriorada,Sin información,Sin información
207,207.png,-17.394428,-66.146879,Cochabamba,Estatua en conmemoración de los docentes de la FAyCH fallecidos.,Maestros,Ninguno,Sin información,,Sin género identificable,Conservada,2023,Facultad de Arquitectura y Ciencias del Hábitat
208,208.png,-17.413121,-66.158698,Cochabamba,Busto de Antonio José de Sucre,Política y militar,Antonio José de Sucre,"Político, diplomático, libertador, y militar venezolano, prócer de la independencia de América del Sur. Segundo presidente de Bolivia.",https://es.wikipedia.org/wiki/Antonio_Jos%C3%A9_de_Sucre,Masculino,Conservada,Sin información,Sin información
209,209.png,-17.394046,-66.146782,Cochabamba,Estatua morfológica elaborada por alumnos de la FAyCH,Arte abstracto,Ninguno,Sin información,,Sin género identificable,Levemente a severamente deteriorada,Sin información,FAyCH
210,210.png,-17.413187,-66.158628,Cochabamba,Busto de Simón Bolivar,Política y militar,Simón Bolívar,"Fue un militar y político venezolano que luchó por la independencia de varios países de Sudamérica, entre ellos Bolivia.",https://www.biografiasyvidas.com/biografia/b/bolivar.htm,Masculino,Conservada,Sin información,Sin información
211,211.png,-17.413157,-66.158527,Cochabamba,Busto de Andrés de Santa Cruz,Política y militar,Andrés de Santa Cruz,"Militar y político boliviano-peruano, fundador de la Confederación Perú-Boliviana",https://es.wikipedia.org/wiki/Andr%C3%A9s_de_Santa_Cruz,Masculino,Conservada,Sin información,Sin información
212,212.png,-17.412967,-66.15924,Cochabamba,Pavorreales,"Naturaleza (animales, plantas)",Ninguno,Pavos reales maceta que cumplen una función ornamental en el Prado de la Zona Sur de Cochabamba,https://www.reduno.com.bo/noticias/ciudad-jardin-pavos-reales-embellecen-la-zona-sur-de-cochabamba-2023111718720,Sin género identificable,Conservada,2023,"Alcaldía de Cochabamba, Emavra"
213,213.png,-17.41285,-66.159599,Cochabamba,Antonio José de Sucre ,Política y militar,Antonio José de Sucre,"Político, diplomático, libertador, y militar venezolano, prócer de la independencia de América del Sur. Segundo presidente de Bolivia.",https://es.wikipedia.org/wiki/Antonio_Jos%C3%A9_de_Sucre,Masculino,Levemente a severamente deteriorada,2011,Alcaldía de Cochabamba
214,214.png,-17.412041,-66.161396,Cochabamba,Fuente con ángeles,"Religión (santos, ángeles, monjas o padres de la iglesia)",Ninguno,Sin información,,Masculino,Levemente a severamente deteriorada,Sin información,Sin información
215,215.png,-17.410879,-66.164653,Cochabamba,Avion B25 Mitchell,Otro,Ninguno,Avión de la Segunda Guerra Mundial convertida en estatua y rotonda,https://www.lostiempos.com/actualidad/cochabamba/20230219/avion-guerra-sobrevive-vence-tiempo-rotonda-cochabamba,Sin género identificable,Conservada,2007,"Alcaldía de Cochabamba, Lloyd Aereo Boliviano"
216,216.png,-17.399408,-66.159728,Cochabamba,Monumento a Esteban Arze,Política y militar,Esteban Arze,"Libertador y comandante de las fuerzas de Cochabamba, vencedor en la batalla de Aroma, fue hasta el año 1814 uno de los principales líderes del movimiento emancipador en el norte de las Provincias Unidas del Río de la Plata. La estatua no cuenta con ninguna placa que lo identifique.",https://es.wikipedia.org/wiki/Esteban_Arze,Masculino,Conservada,Sin información,Sin información
217,217.png,-17.40472,-66.160356,Cochabamba,Monumento a las Heroinas de la Coronilla,Política y militar,Manuela Gandarillas,El Monumento es un conjunto de figuras de bronce dispuestas en tres niveles sobre un basamento pétreo. El Cristo en la cúspide del Monumento bendice a los defensores de la Coronilla. En los espacios laterales del basamento se emplazaron retablos de bronce con imágenes alusivas a los acontecimientos del 27 de mayo de 1812.,https://www.opinion.com.bo/articulo/historia-heroinas-coronilla2/resena-historica-construccion-monumento-heroinas-coronilla/20120524221800418110.html,Femenino,Conservada,1926,Alcaldía municipal
218,218.png,-17.394033,-66.15689,Cochabamba,Fuente Las Tres Gracias,Mitos y leyendas,Ninguno,"La instalación de la actual fuente de agua en la Plaza Principal fue el resultado de una gestión municipal que se inició en 1890, cuando se decidió encarar un proyecto de “Ornamentación de la Plaza”.",https://www.opinion.com.bo/articulo/tendencias/historia-c-oacute-ndor-gracias/20160124184000672342.html,Femenino,Conservada,1896,Alcaldía de Cochabamba
219,219.png,-17.393807,-66.156922,Cochabamba,El Cóndor,"Naturaleza (animales, plantas)",Ninguno,"Pocos conocen que, la figura del cóndor que está elevado en la Columna de los Héroes en el centro de la Plaza Principal sobre un capitel, es la réplica de un cóndor que habitó en la ciudad y se convirtió en la mascota de los cochabambinos. Se dice que este animal fue criado por los “Soldados del Piquete” en el viejo canchón de la policía de Cochabamba, ubicado en la acera norte de la plaza, allá por 1914. Fue amaestrado y adoptado como mascota de la columna.",https://www.opinion.com.bo/articulo/tendencias/historia-c-oacute-ndor-gracias/20160124184000672342.html,Sin género identificable,Conservada,1900,Alcaldía municipal
220,220.png,-17.412363,-66.153542,Cochabamba,General René Barrientos Ortuño,Política y militar,René Barrientos Ortuño,"René Barrientos Ortuño (1919-1969) fue un militar y político boliviano que fue presidente de Bolivia de 1964 a 1969. Primero fue presidente de facto y luego presidente constitucional. Su gobierno estuvo marcado por la violencia y la represión, y su figura es controversial.","https://es.wikipedia.org/wiki/Ren%C3%A9_Barrientos_Ortu%C3%B1o#:~:text=Ren%C3%A9%20Emilio%20Barrientos%20Ortu%C3%B1o%20(Tarata,Bolivia%20de%201966%20a%201969.&text=Fotograf%C3%ADa%20de%20Barrientos.",Masculino,Conservada,Sin información,Sin información
221,221.png,-17.379637,-66.160709,Cochabamba,Monumento al deportista,Deportes,Ninguno,Sin información,,Masculino,Levemente a severamente deteriorada,Sin información,Sin información
222,91.png,-14.835903,-64.898687,Trinidad,Busto de José Luis Maese Vaca,"Arte, música, literatura y comunicación",José Luis Maese Vaca,"Cantautor beniano, integrante del célebre grupo Los Taitas.",https://eldeber.com.bo/gente/muere-jose-luis-maese-vaca-compositor-de-yo-soy-el-beni-senores_284962/,Masculino,Conservada,Sin información,Sin información
223,91.png,-14.835902,-64.898687,Trinidad,Busto del Dr. Guillermo Chávez Zambrana,"Arte, música, literatura y comunicación",Guillermo Chávez Zambrana,Poeta y cantautor beniano.,https://eldeber.com.bo/gente/muere-el-cantante-y-poeta-beniano-guillermo-chavez_319021/,Masculino,Conservada,Sin información,Sin información
224,91.png,-14.835901,-64.898687,Trinidad,Edgar Ruiz Calaje,"Arte, música, literatura y comunicación",Edgar Ruiz Calaje,"Cantautor beniano, líder del grupo musical ""Los Ases del Beni""",https://www.facebook.com/PanoramaInformativoTdd/posts/urgentefalleci%C3%B3-edgar-ruiz-calajetachin-lider-del-grupo-musical-los-ases-del-ben/682451839099929/,Masculino,Conservada,Sin información,Sin información
225,91.png,-14.83590,-64.898687,Trinidad,Edgar Crisanto Aguirre Matorra,"Arte, música, literatura y comunicación",Edgar Cristanto Aguirre Matorra,"Cantautor beniano, miembro de la orquesta ""Son 3 del Beni""",https://www.facebook.com/PanoramaInformativoTdd/posts/honoralbe-alcalde-municipal-cristhian-c%C3%A1mara-distingui%C3%B3-a-personalidades-trinita/762988304379615/,Masculino,Conservada,Sin información,Sin información
226,226.png,-17.382047,-66.151786,Cochabamba,General Carlos Quintanilla,Política y militar,Carlos Quintanilla,"Fue un militar y político boliviano que ocupó la presidencia de facto de Bolivia entre 1939 y 1940. Fue el 37º presidente de Bolivia, asumiendo el cargo tras el suicidio de Germán Busch. ","https://es.wikipedia.org/wiki/Carlos_Quintanilla_Quiroga#:~:text=Carlos%20Quintanilla%20Quiroga%20(Cochabamba%2C%2022,15%20de%20abril%20de%201940.",Masculino,Levemente a severamente deteriorada,Sin información,Alcaldía municipal
227,227.png,-17.783173,-63.181924,Cochabamba,Coronel Ignacio Warnes,Política y militar,Ignacio Warnes,"Ignacio Warnes fue un militar argentino, héroe de la Guerra de Independencia de la Argentina y un símbolo de la lucha por la independencia en Bolivia. En Wikipedia lo describen como un prócer tanto en Argentina como en Bolivia, especialmente en Santa Cruz, donde es considerado el libertador. ","https://es.wikipedia.org/wiki/Ignacio_Warnes#:~:text=Ignacio%20Warnes%20ha%20pasado%20a,le%20conmemoran%2C%20teni%C3%A9ndolo%20por%20ep%C3%B3nimo.",Masculino,Levemente a severamente deteriorada,1816,Nación Argentina
228,228.png,-17.382778,-66.153975,Cochabamba,Torso de Alonso de Mendoza,Política y militar,Alonso de Mendoza,"Estatua de Alonso de Mendoza, capitán y conquistador español quien fundó la ciudad de La Paz. La estatua conmemora el lugar donde se fundó la ciudad de Nuestra Señora de La Paz.",https://es.wikipedia.org/wiki/Alonso_de_Mendoza,Masculino,Conservada,Sin información,Sin información
229,229.png,-17.381133,-66.156097,Cochabamba,"Monumento al hombre mas grande de bolivia, Manuel Maria Camacho Medrano",Otro,Manuel Maria Camacho Medrano,"Manuel María Camacho Medrano, más conocido como el ""gigante Camacho"" fue un hombre boliviano conocido por su gran altura. En 1943 Camacho medía 2,32 metros y se dice que para el final de su vida llegó a medir 2,40 metros",https://es.wikipedia.org/wiki/Manuel_Mar%C3%ADa_Camacho_Medrano,Masculino,Conservada,Sin información,Alcaldía municipal
230,230.png,-21.531532,-64.733603,Tarija,Tomas O'Connor D'Arlach,"Arte, música, literatura y comunicación",Tomas O'Connor D'Arlach,"Don Tomás O'Connor D'arlach fue un abogado, poeta, novelista, biógrafo y periodista boliviano, que fungió en distintos cargos públicos en Tarija",https://es.wikipedia.org/wiki/Tom%C3%A1s_O%27Connor_d%27Arlach,Masculino,Conservada,Sin fecha,Sin información
231,231.png,-21.533948,-64.734061,Tarija,Aniceto Arce,Política y militar,Aniceto Arce,"Aniceto Arce fue un abogado, empresario y político boliviano nacido en Tarija. Ocupó la presidencia de Bolivia en 1888.",https://es.wikipedia.org/wiki/Aniceto_Arce,Masculino,Conservada,1976,Alcaldia de Tarija
232,232.png,-21.534088,-64.734329,Tarija,Luis de Fuentes y Vargas,Política y militar,Luis de Fuentes y Vargas,Luis de Fuentes y Vargas fue un militar español fundador de la Ciudad de Tarija,https://es.wikipedia.org/wiki/Luis_de_Fuentes_y_Vargas,Masculino,Conservada,1991,gobierno municipal
233,233.png,-21.539885,-64.736592,Tarija,Gral Martin Miguel de Güemes,Política y militar,Martin Miguel de Güemes,Fue un militar y político argentino que cumplió una destacada actuación en la guerra de Independencia de la Argentina,https://es.wikipedia.org/wiki/Mart%C3%ADn_Miguel_de_G%C3%BCemes,Masculino,Conservada,2017,Pueblo y gobierno de la provincia de salta
234,234.png,-21.538489,-64.733305,Tarija,Juan Misael Saracho,Política y militar,Juan Misael Saracho,"Juan Misael Saracho fue un abogado, periodista y político tarijeño, décimo octavo Vicepresidente de la República de Bolivia",https://es.wikipedia.org/wiki/Juan_Misael_Saracho,Masculino,Conservada,Sin fecha,Sin información
235,235.png,-21.539356,-64.732631,Tarija,Profesor Luis Parra,Deportes,Luis Parra,Busto del Profesor de Basquetball Luis Parra,,Masculino,Levemente a severamente deteriorada,Sin fecha,alcaldia municipal
236,236.png,-21.54246,-64.728705,Tarija,Guitarra homenaje artistas,"Arte, música, literatura y comunicación",,Homenaje a los artistas por su aporte a la cultura y al folklore de Tarija,,Sin género identificable,Levemente a severamente deteriorada,2017,concejo municipal
237,237.png,-21.540834,-64.72742,Tarija,Victor Paz Estenssoro,Política y militar,Victor Paz Estenssoro,"Político tarijeño, fue presidente de Bolivia en cuatro ocasiones.",https://es.wikipedia.org/wiki/V%C3%ADctor_Paz_Estenssoro,Masculino,Levemente a severamente deteriorada,Sin fecha,Sin información
238,238.png,-21.541033,-64.72514,Tarija,Honor y Gloria a Tarija,Política y militar,Eustaquio Mendez,"Obelisco y busto de Motomendez, en homenaje al pueblo tarijeño",https://es.wikipedia.org/wiki/Eustaquio_M%C3%A9ndez,Otro,Conservada,1995,Comite Pro intereses de Tarija
239,239.png,-21.541757,-64.721937,Tarija,Eustaquio Mendez,Política y militar,Eustaquio Mendez,"Militar rioplatense y uno de los caudillos de San Lorenzo, que participó en la guerra de independencia de Bolivia en la región de Tarija.",https://es.wikipedia.org/wiki/Eustaquio_M%C3%A9ndez,Masculino,Conservada,Sin fecha,Sin información
240,240.png,-21.542291,-64.717634,Tarija,Julio Delio Echazu Sosa,Abogados,Julio Delio Echazu Sosa,Jurista tarijeño,https://tarija-tdj.organojudicial.gob.bo/Paper/Detail/11646,Masculino,Conservada,1992,consejo municipal
241,241.png,-21.535075,-64.741613,Tarija,Comadres Tarijeñas,Culturas indígenas,,Homenaje a la fiesta de las comadres,,Femenino,Conservada,Sin fecha,Sin información
242,242.png,-21.53275,-64.742296,Tarija,Dr Angel Baldiviezo Echazu,Política y militar,Angel Baldiviezo Echazu,Fiscal General de la República en los años 1991-1994,https://laprensa.bo/los-11-fiscales-que-tuvo-bolivia-en-democracia,Masculino,Conservada,Sin fecha,Sin información
243,243.png,-21.53261,-64.74083,Tarija,José de San Martin,Política y militar,José de San Martin,"Fue un militar y político argentino, conocido por ser el libertador de la Argentina y Chile, además haber proclamado e impulsado la independencia de Perú.",https://es.wikipedia.org/wiki/Jos%C3%A9_de_San_Mart%C3%ADn,Masculino,Conservada,2000,Instituto Sanmartiniano de Salta y el gobierno municipal de Tarija
244,244.png,-21.531902,-64.740579,Tarija,Defensores del chaco,Política y militar,,Estatua a los soldados defensores del Chaco,,Masculino,Conservada,1983,alcaldia municipal
245,245.png,-21.531563,-64.738836,Tarija,Francisco Pérez de Uriondo,Política y militar,Francisco Pérez de Uriondo,"Fue un militar y político de origen chileno que participó destacadamente en la Guerra de la Independencia Argentina, participando en la guerra gaucha siendo caudillo de caudillos o comandante de los caudillos de Tarija. Fue electo por el voto popular como gobernador de Tarija. Desligó el Gobierno tarijeño de la administración del Gobierno rioplatense y constituyó el partido como una provincia",https://es.wikipedia.org/wiki/Francisco_P%C3%A9rez_de_Uriondo,Masculino,Conservada,1982,Sin información
246,246.png,-21.529246,-64.73805,Tarija,Cristo de La Loma de San Juan,"Religión (santos, ángeles, monjas o padres de la iglesia)",Cristo,Monumento al Sagrado Corazon de Jesus en memoria del Congreso Eucaristico de Tarija 1952,,Masculino,Conservada,2014,Sin información
247,247.png,-21.532869,-64.732343,Tarija,Luis Paz Arce,Política y militar,Luis Paz Arce,"Fue un historiador, periodista, jurista, abogado y político tarijeño que sirvió en el Corte Suprema de Justicia de Bolivia ",https://en.wikipedia.org/wiki/Luis_Paz,Masculino,Conservada,1974,Corte de Justicia
248,248.png,-21.53544,-64.732108,Tarija,Mariscal Antonio Jose de Sucre,Política y militar,Antonio José de Sucre,"Político, diplomático, libertador, y militar venezolano, prócer de la independencia de América del Sur. Segundo presidente de Bolivia.",https://es.wikipedia.org/wiki/Antonio_Jos%C3%A9_de_Sucre,Masculino,Conservada,Sin fecha,Sin información
249,249.png,-21.528418,-64.737782,Tarija,Arco de Paz,Otro,Arco de Paz,Escultura en nombre de la Paz y amistad del pueblo de Tarija,,Otro,Conservada,2015,Sin información
2500,2500.png,-21.53801,-64.735397,Tarija,Bicentenario de la Batalla de Tablado,Arte abstracto,,Homenaje del pueblo del Departamento de Tarija a los valientes hombres y mujeres que nos legaron la libertad,,Femenino,Conservada,2017,Sin información
251,251.png,-21.541747,-64.749273,Tarija,Libro La voz de los siglos,"Arte, música, literatura y comunicación",,Estatua como parte de la biblioteca municipal Profesora Luz Aparicio de Fuentes,,Femenino,Conservada,Sin fecha,Sin información
252,252.png,-21.541328,-64.742079,Tarija,Luis de Fuentes y Vargas,Política y militar,Luis de Fuentes y Vargas,Luis de Fuentes y Vargas fue un militar español fundador de la Ciudad de Tarija,https://es.wikipedia.org/wiki/Luis_de_Fuentes_y_Vargas,Masculino,Conservada,Sin fecha,Sin información
253,253.png,-21.538148,-64.745375,Tarija,General Jose Manuel Belgrano,Política y militar,Jose Manuel Belgrano,"Fue un abogado, economista, periodista, político, diplomático y militar argentino de destacada actuación en la causa independentista y americana de Argentina, Bolivia y Paraguay.",https://es.wikipedia.org/wiki/Manuel_Belgrano,Masculino,Conservada,2014,Sin información
254,254.png,-21.537789,-64.744097,Tarija,Coronel Eustaquio Mendez,Política y militar,Eustaquio Mendez,"Militar rioplatense y uno de los caudillos de San Lorenzo, que participó en la guerra de independencia de Bolivia en la región de Tarija.",https://es.wikipedia.org/wiki/Eustaquio_M%C3%A9ndez,Masculino,Conservada,1987,Sin información
255,255.png,-21.53731,-64.743453,Tarija,Monumento a la Maternidad,Maternidad,,Sin información,,Femenino,Conservada,1996,Aldeas Infantiles SOS
256,256.png,-21.54229,-64.733883,Tarija,Gruta de la Virgen de Chaguaya,"Religión (santos, ángeles, monjas o padres de la iglesia)",Virgen María,"Gruta dedicada a la Virgen de Chaguaya, lugar de donde salen los promesantes hacia Chaguaya",,Femenino,Conservada,Sin fecha,Sin información
257,257.png,-21.545065,-64.729756,Tarija,Leon,"Naturaleza (animales, plantas)",,Leon donado por el Club de los Leones,,Masculino,Conservada,Sin fecha,Sin información
258,258.png,-21.549546,-64.722015,Tarija,Virgen de Guadalupe,"Religión (santos, ángeles, monjas o padres de la iglesia)",Virgen María,Sin información,,Femenino,Conservada,Sin fecha,Sin información
259,259.png,-21.519401,-64.728737,Tarija,Poro Mate Chaqueño,Culturas indígenas,,"Poro y bombilla, en la plaza Gran Chaco en gestion de las damas chaqueñas",,Sin género identificable,Conservada,2017,Damas Chaqueñas
260,260.png,-21.527171,-64.739558,Tarija,Pilar de la Cruz,"Religión (santos, ángeles, monjas o padres de la iglesia)",Pilar de la Cruz,"Cristo Crucificado en su cruz, sobre un pilar escultorico, esta sin placa pero se cree fue donado de forma internacional",,Masculino,Conservada,Sin fecha,Sin información
261,261.png,-21.529216,-64.738507,Tarija,Profesora Mercedes Sanchez Rossel,Ciencia e investigadores,Mercedes Sanchez Rossel,Sin información,,Femenino,Conservada,Sin fecha,Sin información
262,262.png,-21.529587,-64.738484,Tarija,Miguel Martin de Guemes,Política y militar,Miguel Martin de Guemes,Fue un militar y político argentino que cumplió una destacada actuación en la guerra de Independencia de la Argentina.,https://es.wikipedia.org/wiki/Mart%C3%ADn_Miguel_de_G%C3%BCemes,Masculino,Conservada,1993,Sin información
263,263.png,-21.529572,-64.733399,Tarija,Narciso Campero,Política y militar,Narciso Campero,"Narciso Campero Leyes, nacido en Tojo, Tarija, fue un militar y político boliviano que llegó a ser presidente de Bolivia",https://elpais.bo/cultura/20220403_general-narciso-campero-primera-parte.html,Masculino,Conservada,2006,Familia Campero
264,264.png,-21.526382,-64.733153,Tarija,Isaac Attie,Política y militar,Isaac Attie,"Fue un ciudadano de origen sirio que desempeñó un papel destacado en el desarrollo urbano y social de la ciudad de Tarija, Bolivia, a lo largo del siglo XX.",https://es.wikipedia.org/wiki/Isaac_Attie,Masculino,Conservada,1989,Sin información
265,265.png,-21.525824,-64.73018,Tarija,Eduardo Avaroa,Política y militar,Eduardo Avaroa,Estatua en conmemoración a Eduardo Abaroa y a la guerra del Pacífico,https://www.historia.com.bo/biografia/eduardo-abaroa,Masculino,Conservada,2009,Sin información
266,266.png,-21.525629,-64.730099,Tarija,Barco homenaje a Heroes tarijeños en la Guerra del PAcifico,Política y militar,,Sin información,,Sin género identificable,Conservada,2017,Sin información
267,267.png,-21.533199,-64.735287,Tarija,Eustaquio El Moto Mendez y Gregorio Araoz de La Madrid,Política y militar,Eustaquio Mendez y Gregorio Araoz de La Madrid,"Militar rioplatense y uno de los caudillos de San Lorenzo, que participó en la guerra de independencia de Bolivia en la región de Tarija.",https://es.wikipedia.org/wiki/Eustaquio_M%C3%A9ndez,Masculino,Conservada,2017,Consulado Argentino y Alcaldia
268,268.png,-21.533828,-64.732792,Tarija,San Francisco de Asis,"Religión (santos, ángeles, monjas o padres de la iglesia)",San Francisco de Asis,"Fue un santo umbro (italiano), diácono y fundador de la Orden Franciscana",https://es.wikipedia.org/wiki/Francisco_de_As%C3%ADs,Masculino,Conservada,Sin fecha,Sin información
269,269.png,-21.539755,-64.731125,Tarija,Avion FAB 336 a los aviadores Tarijeños,Política y militar,,Sin información,,Sin género identificable,Conservada,Sin fecha,Sin información
270,270.png,-21.538593,-64.729343,Tarija,Madre,Maternidad,,Sin información,,Femenino,Conservada,Sin fecha,Club de Leones
271,271.png,-21.537715,-64.723791,Tarija,Virgen de Fatima,"Religión (santos, ángeles, monjas o padres de la iglesia)",Virgen María,"Es una advocación de la Virgen María que se venera en la Iglesia Católica. Su devoción surgió a partir de las apariciones marianas que tres niños pastores, Lucía, Jacinta y Francisco, afirmaron haber presenciado en Fátima, Portugal, entre mayo y octubre de 1917.",https://es.wikipedia.org/wiki/Virgen_de_F%C3%A1tima,Femenino,Conservada,1967,Los vecinos del barrio de Villa Fatima
272,272.png,-21.534387,-64.72577,Tarija,Simon Bolivar,Política y militar,Simon Bolivar,"Fue un militar y político venezolano que luchó por la independencia de varios países de Sudamérica, entre ellos Bolivia.",https://www.biografiasyvidas.com/biografia/b/bolivar.htm,Masculino,Conservada,1991,Sin información
273,273.png,-21.533977,-64.724568,Tarija,San Roque,"Religión (santos, ángeles, monjas o padres de la iglesia)",San Roque,"San Roque fue un peregrino francés del siglo XIV, conocido por su devoción a los enfermos, especialmente durante la peste","https://es.wikipedia.org/wiki/Roque#:~:text=Roque%20recorri%C3%B3%20Italia%20y%20se,la%20se%C3%B1al%20de%20la%20cruz.",Masculino,Conservada,2015,Sin información
274,274.png,-21.532067,-64.727589,Tarija,Dr. Alberto Baldiviezo,Ciencia e investigadores,Alberto Baldiviezo,Sin información,,Masculino,Conservada,1966,Rotary Club
275,275.png,-21.531572,-64.726929,Tarija,Virgen de Lourdes,"Religión (santos, ángeles, monjas o padres de la iglesia)",Virgen María,"La Virgen de Lourdes es una advocación de la Virgen María, venerada por los católicos, especialmente conocida por las apariciones a Santa Bernardita Soubirous en Lourdes, Francia, en 1858",https://es.wikipedia.org/wiki/Nuestra_Se%C3%B1ora_de_Lourdes,Femenino,Conservada,Sin fecha,"Alcira Murillo de Veramendy, su esposo e Hijos"
276,276.png,-21.531114,-64.726891,Tarija,Hipocrates,Ciencia e investigadores,Hipócrates,Homenaje al medico que entrega su vida al servicio de la comunidad Tarijeña,https://es.wikipedia.org/wiki/Hip%C3%B3crates,Masculino,Conservada,1991,UST Unidad salud tarija
277,277.png,-21.530793,-64.725577,Tarija,Hipocrates,Ciencia e investigadores,Hipócrates,"Al primer medico, en el Colegio Medico de Bolivia sede Tarija",https://es.wikipedia.org/wiki/Hip%C3%B3crates,Masculino,Conservada,Sin fecha,Colegio de Medicos de Bolivia Sede Tarija
278,278.png,-21.531927,-64.727841,Tarija,Dr Tomas Frias,Política y militar,Tomas Frias,Tomás Frías fue un político boliviano durante la segunda mitad del siglo XIX y presidente de Bolivia en dos ocasiones.,https://es.wikipedia.org/wiki/Tom%C3%A1s_Fr%C3%ADas_Ametller,Masculino,Conservada,1991,Los residentes Potosinos agradecidos a Tarija por cobijarlos
279,279.png,-21.528489,-64.726549,Tarija,Dr Fanor Romero Romero,Ciencia e investigadores,Fanor Romero Romero,Sin información,,Masculino,Conservada,1994,Sin información
